VERTEX2 0 0.0229174 -0.031364 1.57935
ROBOTLASER1 0 -1.570796 3.141720 0.008727 50.000000 0.100000 0 360 1.67 1.65 1.64 1.63 1.63 1.64 1.72 1.75 1.75 6.94 6.97 6.97 6.97 6.95 6.88 7.31 6.88 6.84 6.82 6.86 6.93 7.40 7.42 7.45 7.44 6.28 4.28 4.13 4.10 3.98 3.85 3.83 3.80 3.79 3.78 3.79 3.84 3.85 3.83 3.80 3.83 4.00 4.59 4.61 4.63 4.65 4.67 4.68 4.71 4.73 4.75 4.00 3.72 3.68 3.64 3.65 3.68 2.06 2.00 1.98 1.97 1.99 2.00 2.07 2.09 2.10 2.11 2.13 2.15 2.16 2.17 2.19 2.21 2.22 2.24 2.26 2.28 2.29 2.31 2.32 2.35 2.37 2.39 2.41 2.44 2.46 2.50 2.51 2.53 2.57 2.59 2.62 2.64 2.67 2.71 2.73 2.76 2.79 2.83 2.86 2.89 2.93 2.91 2.91 2.96 2.95 2.95 2.93 2.91 2.90 2.92 2.96 3.00 3.05 3.10 3.73 3.78 3.86 3.93 4.00 4.06 4.15 4.23 4.29 11.03 7.97 4.55 4.50 4.50 4.59 4.86 4.97 5.10 5.24 5.37 5.52 5.66 5.84 5.87 5.99 6.31 6.53 6.75 6.98 7.20 7.32 8.19 8.18 8.33 8.63 8.63 8.75 10.14 10.17 10.17 10.18 10.17 10.17 10.16 10.15 10.11 10.09 12.31 12.29 12.29 12.27 12.27 12.27 12.26 12.27 12.43 12.42 10.12 10.08 10.11 10.11 10.11 10.12 10.12 10.10 10.09 8.64 8.55 8.53 8.13 8.08 7.16 6.84 6.43 5.78 5.73 5.67 5.34 5.09 4.88 4.42 4.31 4.26 4.11 3.97 3.85 3.70 3.14 2.83 2.72 2.66 2.63 2.63 2.64 2.65 2.66 2.67 2.66 2.60 2.60 2.59 2.51 2.46 2.42 2.37 2.32 2.28 2.24 2.19 2.16 2.13 2.09 2.05 2.02 1.98 1.96 1.93 1.90 1.88 1.84 1.82 1.79 1.77 1.75 1.74 1.71 1.69 1.67 1.65 1.63 1.62 1.60 1.58 1.56 1.55 1.53 1.52 1.50 1.49 1.44 1.40 1.38 1.37 1.37 1.39 1.39 1.40 1.39 1.37 1.36 1.35 1.34 1.33 1.33 1.32 1.30 1.29 1.29 1.27 1.27 1.26 1.25 1.25 1.24 1.23 1.22 1.21 1.21 1.20 1.19 1.18 1.18 1.18 1.17 1.17 1.16 1.16 1.15 1.15 1.15 1.14 1.13 1.12 1.12 1.11 1.11 1.11 1.10 1.09 1.09 1.08 1.08 1.08 1.07 1.06 1.06 1.06 1.06 1.06 1.06 1.05 1.04 1.05 1.04 1.05 1.05 1.05 1.04 1.04 1.03 1.03 1.03 1.02 1.02 1.02 1.02 1.02 1.02 1.02 1.01 1.01 1.01 1.01 1.01 1.01 1.00 1.00 1.00 1.00 1.00 1.00 1.00 1.00 1.00 1.00 0.99 1.00 1.00 1.00 1.01 1.00 1.00 1.01 1.01 1.00  0 0.023260 -0.071364 1.579348 0.022917 -0.031364 1.579348 0.000000 0.000000 0.000000 0.000000 0.000000 1211.520329 x 0.015885
VERTEX2 1 0.035633 0.619364 1.479002
ROBOTLASER1 0 -1.570796 3.141720 0.008727 50.000000 0.100000 0 360 6.39 6.36 6.94 7.18 7.18 7.28 7.28 7.06 7.07 7.08 7.03 7.09 7.12 6.90 6.81 7.23 7.24 7.26 7.24 4.15 3.99 3.78 3.70 3.66 3.63 3.64 3.64 3.62 3.64 3.65 3.62 1.77 1.78 1.73 1.72 1.73 1.74 1.79 1.79 1.80 1.80 1.81 1.81 1.82 1.83 1.82 1.83 1.84 1.84 1.85 1.87 1.87 1.89 1.88 1.90 1.91 1.91 1.91 1.93 1.93 1.95 1.96 1.97 1.97 1.98 1.99 2.01 2.02 2.02 2.03 2.05 2.07 2.08 2.09 2.09 2.11 2.13 2.14 2.16 2.17 2.18 2.20 2.22 2.23 2.25 2.27 2.29 2.30 2.32 2.33 2.36 2.39 2.40 2.41 2.42 2.41 2.41 2.46 2.45 2.42 2.42 2.39 2.37 2.36 2.38 2.41 2.44 2.47 2.51 2.53 2.60 3.05 3.09 3.12 3.17 3.21 3.25 3.29 3.34 3.39 3.45 3.49 3.55 3.59 3.66 3.69 81.91 81.91 81.91 3.96 3.92 3.90 3.93 4.12 4.23 4.30 4.41 4.48 4.59 4.67 4.80 4.89 5.03 5.13 5.25 5.25 5.51 5.64 5.83 5.98 6.20 6.35 6.59 6.63 7.55 7.60 7.54 7.73 8.00 8.00 8.02 8.33 9.52 9.52 9.52 9.53 9.54 9.51 9.51 9.50 9.47 9.43 11.71 11.64 11.63 11.62 11.61 11.60 11.62 11.59 11.63 11.72 11.73 9.48 9.41 9.43 9.45 9.46 9.50 9.47 9.46 9.42 8.04 7.96 7.90 7.87 7.47 7.41 6.55 6.41 5.98 5.72 5.13 5.05 5.03 4.88 4.59 4.44 4.24 4.12 3.68 3.64 3.60 3.51 3.40 3.32 3.21 3.14 3.04 2.97 2.88 2.82 2.23 2.15 2.09 2.04 2.00 1.98 1.99 1.98 2.00 2.00 2.02 2.02 2.05 2.03 1.98 1.98 1.99 1.98 1.94 1.91 1.88 1.85 1.83 1.80 1.78 1.75 1.73 1.71 1.69 1.67 1.64 1.62 1.60 1.59 1.57 1.55 1.53 1.51 1.50 1.48 1.46 1.45 1.43 1.42 1.41 1.39 1.38 1.37 1.35 1.35 1.34 1.33 1.31 1.30 1.28 1.28 1.27 1.26 1.25 1.24 1.23 1.22 1.22 1.21 1.20 1.20 1.19 1.18 1.18 1.17 1.16 1.15 1.14 1.13 1.12 1.12 1.11 1.11 1.10 1.09 1.08 1.08 1.07 1.07 1.07 1.07 1.06 1.06 1.05 1.05 1.04 1.04 1.03 1.03 1.00 0.99 0.97 0.97 0.97 0.96 0.97 0.97 1.02 1.01 1.01 1.01 1.01 1.01 1.01 1.00 1.01 1.00 1.00 1.00 0.99 0.99 0.99 0.98 0.99 0.99 0.99 0.99 0.99 0.99 0.98 0.98 0.98 0.98 0.98 0.98 0.97 0.97 0.97 0.98 0.97 0.96 0.98 0.97  0 0.031967 0.579533 1.479002 0.035633 0.619364 1.479002 0.000000 0.000000 0.000000 0.000000 0.000000 1216.420222 x 4.919457
VERTEX2 2 0.112639 1.260501 1.382006
ROBOTLASER1 0 -1.570796 3.141720 0.008727 50.000000 0.100000 0 360 1.63 1.63 1.62 1.66 1.67 1.66 1.66 1.66 1.67 1.67 1.67 1.66 1.68 1.67 1.66 1.67 1.66 1.66 1.66 1.67 1.66 1.67 1.67 1.68 1.68 1.68 1.68 1.68 1.69 1.69 1.68 1.69 1.69 1.69 1.70 1.70 1.70 1.71 1.70 1.71 1.71 1.72 1.72 1.73 1.72 1.73 1.74 1.74 1.74 1.74 1.75 1.76 1.76 1.76 1.77 1.78 1.79 1.80 1.80 1.81 1.82 1.83 1.83 1.84 1.84 1.85 1.86 1.87 1.88 1.89 1.90 1.90 1.91 1.91 1.93 1.94 1.95 1.97 1.97 1.98 1.97 1.95 1.95 1.98 2.00 1.98 1.97 1.93 1.92 1.89 1.88 1.88 1.90 1.91 1.92 1.93 1.95 1.97 1.99 2.00 2.03 2.14 2.43 2.45 2.47 2.50 2.53 2.56 2.58 2.60 2.63 2.66 2.68 2.71 2.74 2.77 2.80 2.83 2.86 2.89 2.94 2.97 3.01 3.04 3.08 3.12 3.13 5.39 5.37 5.35 81.91 3.34 3.31 3.30 3.31 3.39 3.54 3.60 3.65 3.72 3.81 3.88 3.95 4.02 4.10 4.18 4.25 4.34 4.43 4.52 4.61 4.60 4.70 4.90 5.04 5.17 5.31 5.46 5.62 5.77 5.95 6.00 6.94 6.97 6.94 6.89 7.28 7.35 7.35 7.34 7.63 8.83 8.88 8.86 8.86 8.88 8.88 8.85 8.85 8.84 8.83 8.78 11.10 10.99 10.97 10.97 10.97 10.95 10.97 10.96 10.95 10.98 11.10 11.08 8.83 8.75 8.79 8.80 8.85 8.85 8.87 8.87 8.79 8.79 7.44 7.30 7.25 7.23 6.93 6.77 6.80 5.93 5.81 5.54 5.26 5.02 4.79 4.44 4.42 4.39 4.17 4.03 3.91 3.78 3.65 3.56 3.44 3.35 3.06 3.03 3.02 2.95 2.90 2.83 2.77 2.72 2.64 2.60 2.54 2.49 2.43 2.39 2.33 2.30 2.25 2.21 2.17 2.14 2.09 2.07 1.79 1.68 1.59 1.56 1.54 1.52 1.50 1.48 1.45 1.44 1.43 1.43 1.45 1.45 1.46 1.46 1.48 1.48 1.50 1.52 1.52 1.50 1.47 1.45 1.47 1.47 1.48 1.46 1.44 1.43 1.41 1.40 1.38 1.38 1.36 1.35 1.35 1.34 1.32 1.31 1.30 1.29 1.29 1.28 1.27 1.26 1.25 1.24 1.23 1.22 1.21 1.20 1.20 1.20 1.19 1.19 1.17 1.17 1.17 1.16 1.15 1.14 1.13 1.14 1.14 1.12 1.11 1.11 1.10 1.10 1.09 1.09 1.08 1.08 1.07 1.07 1.07 1.07 1.06 1.05 1.05 1.05 1.04 1.04 1.04 1.03 1.03 1.03 1.02 1.02 1.02 1.02 1.01 1.01 1.01 1.01 1.01 1.00 1.00 1.00 1.00 1.00 1.00 1.00 1.00 0.99 1.00 0.99 1.00 0.99  0 0.105133 1.221212 1.382006 0.112639 1.260501 1.382006 0.000000 0.000000 0.000000 0.000000 0.000000 1217.700223 x 6.212368
VERTEX2 3 0.213445 1.887221 1.444940
ROBOTLASER1 0 -1.570796 3.141720 0.008727 50.000000 0.100000 0 360 1.61 1.62 1.62 1.61 1.61 1.61 1.62 1.61 1.61 1.62 1.62 1.62 1.62 1.62 1.62 1.62 1.63 1.63 1.63 1.62 1.63 1.64 1.63 1.63 1.63 1.63 1.63 1.63 1.64 1.64 1.64 1.65 1.65 1.66 1.66 1.66 1.66 1.62 1.63 1.63 1.64 1.65 1.66 1.63 1.61 1.54 1.53 1.50 1.51 1.51 1.52 1.52 1.53 1.53 1.54 1.55 1.56 1.56 1.57 1.58 1.58 1.59 1.60 1.79 1.91 1.94 1.95 1.96 1.96 1.98 1.98 2.00 2.01 2.01 2.02 2.04 2.05 2.07 2.07 2.09 2.10 2.13 2.14 2.15 2.16 2.18 2.20 2.22 2.23 2.25 2.27 2.29 2.30 2.33 2.35 2.37 2.38 2.40 2.42 2.45 2.47 2.50 2.53 2.56 2.58 2.60 7.08 9.48 9.48 7.32 6.20 2.81 2.79 2.74 2.74 2.73 2.76 2.89 2.93 2.96 3.01 3.05 3.09 3.15 3.19 3.25 3.30 3.34 3.39 3.46 3.50 3.56 3.63 3.69 3.75 3.84 3.90 3.99 3.99 4.01 4.14 4.27 4.36 4.47 4.56 4.69 4.80 4.93 5.03 5.22 5.34 5.38 6.38 6.27 6.34 6.27 6.27 6.66 6.71 6.70 6.71 6.84 8.09 8.22 8.24 8.23 8.23 8.23 8.22 8.22 8.22 8.20 8.19 8.15 8.15 10.38 10.34 10.32 10.32 10.30 10.31 10.31 10.32 10.29 10.32 10.43 10.42 8.23 8.14 8.13 8.16 8.16 8.17 8.17 8.17 8.17 8.17 8.15 8.16 6.81 6.62 6.61 6.62 6.38 6.16 6.16 6.15 5.32 5.21 4.99 4.82 4.61 4.46 4.28 4.14 3.84 3.81 3.81 3.72 3.58 3.49 3.40 3.30 3.22 3.15 3.07 3.01 2.93 2.88 2.81 2.75 2.69 2.50 2.45 2.46 2.43 2.38 2.33 2.31 2.27 2.24 2.20 2.17 2.13 2.10 2.07 2.04 2.01 1.98 1.95 1.92 1.90 1.88 1.84 1.83 1.80 1.79 1.76 1.74 1.72 1.71 1.69 1.66 1.64 1.63 1.61 1.60 1.58 1.57 1.55 1.53 1.52 1.51 1.50 1.48 1.46 1.44 1.44 1.42 1.41 1.18 1.14 1.13 1.12 1.11 1.10 1.09 1.09 1.08 1.08 1.07 1.06 1.05 1.04 1.03 1.03 1.02 1.01 1.01 1.01 1.01 1.01 1.04 1.05 1.07 1.08 1.12 1.13 1.16 1.15 1.13 1.12 1.11 1.11 1.10 1.10 1.14 1.14 1.13 1.13 1.13 1.13 1.12 1.12 1.11 1.10 1.09 1.08 1.08 1.08 1.08 1.07 1.07 1.07 1.08 1.08 1.08 1.07 1.06 1.06 1.06 1.06 1.05 1.05 1.05 1.05 1.05 1.05 1.05 1.05 1.04 1.04 1.04 1.04 1.04 1.04 1.03 1.04 1.03 1.03  0 0.208424 1.847538 1.444940 0.213445 1.887221 1.444940 0.000000 0.000000 0.000000 0.000000 0.000000 1218.980183 x 7.500354
VERTEX2 4 0.293951 2.547196 1.499657
ROBOTLASER1 0 -1.570796 3.141720 0.008727 50.000000 0.100000 0 360 1.40 1.40 1.41 1.41 1.41 1.41 1.41 1.41 1.41 1.49 1.51 1.58 1.58 1.58 1.59 1.69 1.70 1.70 1.70 1.70 1.71 1.71 1.71 1.72 1.73 1.73 1.73 1.74 1.74 1.75 1.75 1.75 1.75 1.75 1.76 1.77 1.77 1.78 1.78 1.78 1.79 1.80 1.80 1.81 1.82 1.82 1.83 1.83 1.84 1.85 1.86 1.87 1.88 1.88 1.90 1.90 1.90 1.92 1.93 1.94 1.95 1.97 1.97 1.98 1.99 2.01 2.02 2.03 2.03 2.04 2.06 2.07 2.08 2.10 2.11 2.13 2.16 2.48 9.41 9.42 9.52 9.61 4.23 4.96 4.84 4.77 2.30 2.26 2.24 2.22 2.23 2.26 2.33 2.38 2.40 2.43 2.45 2.49 2.51 2.53 2.57 2.59 2.62 2.65 2.69 2.71 2.75 2.78 2.81 2.85 2.88 2.92 2.96 3.00 3.04 3.08 3.12 3.17 3.21 3.26 3.31 3.36 3.41 3.39 3.41 3.54 3.62 3.67 3.74 3.83 3.92 3.99 4.07 4.16 4.24 4.34 4.43 4.54 4.64 4.71 4.78 5.87 5.72 5.66 5.67 5.65 5.66 6.01 6.07 6.10 6.08 6.09 6.23 7.36 7.56 7.60 7.59 7.58 7.60 7.60 7.59 7.57 7.57 7.57 7.57 7.52 7.49 9.86 9.70 9.67 9.66 9.64 9.65 9.63 9.65 9.65 9.64 9.65 9.76 9.76 9.80 7.57 7.48 7.49 7.51 7.50 7.51 7.51 7.53 7.53 7.52 7.49 7.51 7.51 6.18 5.97 5.98 5.99 5.93 5.59 5.52 5.54 5.51 4.90 4.62 4.54 4.36 4.21 4.07 3.94 3.82 3.68 3.57 3.49 3.28 3.18 3.18 3.18 3.11 3.02 2.97 2.90 2.83 2.77 2.72 2.67 2.61 2.56 2.52 2.46 2.41 2.37 2.34 2.30 2.25 2.22 2.18 2.15 2.12 2.08 2.01 1.92 1.89 1.88 1.89 1.88 1.84 1.82 1.80 1.78 1.76 1.75 1.73 1.71 1.69 1.67 1.65 1.64 1.62 1.61 1.59 1.58 1.56 1.54 1.54 1.52 1.51 1.49 1.47 1.46 1.44 1.43 1.42 1.41 1.40 1.38 1.37 1.37 1.36 1.35 1.34 1.33 1.31 1.31 1.31 1.29 1.29 1.28 1.27 1.26 1.25 1.24 1.23 1.23 1.22 1.21 1.21 1.21 1.20 1.20 1.19 1.18 1.18 1.17 1.17 1.16 1.16 1.15 1.15 1.15 1.15 1.14 1.14 1.13 1.13 1.12 1.12 1.11 1.11 1.10 1.09 1.09 1.09 1.09 1.08 1.08 1.09 1.07 1.08 1.07 1.07 1.07 1.05 1.04 1.03 1.03 1.02 1.02 1.01 1.00 0.87 0.86 0.86 0.86 0.86 0.85 0.85 0.85 0.85 0.85 0.85 0.85 0.85 0.85 0.85 0.85 0.85 0.85 0.85 0.85  0 0.291109 2.507299 1.499657 0.293951 2.547196 1.499657 0.000000 0.000000 0.000000 0.000000 0.000000 1220.260554 x 8.809338
VERTEX2 5 0.341337 3.198756 1.500524
ROBOTLASER1 0 -1.570796 3.141720 0.008727 50.000000 0.100000 0 360 1.64 1.67 1.67 1.68 1.67 1.68 1.68 1.69 1.69 1.68 1.69 1.69 1.69 1.70 1.70 1.71 1.70 1.70 1.71 1.71 1.72 1.72 1.72 1.73 1.73 1.73 1.73 1.73 1.74 1.74 1.75 1.75 1.76 1.76 1.77 1.77 1.78 1.78 1.79 1.79 1.80 1.80 1.81 1.81 1.83 7.72 3.49 7.77 6.56 2.13 2.12 7.91 7.98 5.94 5.93 5.97 4.14 1.92 1.91 1.85 1.83 1.83 1.85 1.84 1.89 1.93 1.94 1.95 1.97 1.98 1.99 2.01 2.01 2.03 2.05 2.07 2.08 2.08 2.10 2.12 2.15 2.16 2.18 2.19 2.21 2.23 2.25 2.26 2.28 2.30 2.32 2.34 2.37 2.39 2.41 2.43 2.46 2.49 2.52 2.54 2.57 2.60 2.62 2.66 2.68 2.70 2.74 2.77 2.80 2.84 2.86 2.84 2.85 2.91 3.00 3.04 3.08 3.12 3.17 3.22 3.27 3.32 3.37 3.43 3.48 3.55 3.61 3.67 3.73 3.82 3.90 3.97 4.07 4.12 4.15 5.49 5.38 5.23 5.10 5.04 5.04 5.01 5.02 5.30 5.42 5.46 5.47 5.46 5.46 5.56 5.87 6.76 6.92 6.98 6.97 6.96 6.95 6.97 6.97 6.95 6.94 6.92 6.92 6.90 6.89 6.84 9.81 9.11 9.05 9.02 9.02 9.02 9.02 8.99 9.01 9.02 8.99 8.99 9.05 9.15 9.14 6.95 6.86 6.82 6.86 6.85 6.86 6.86 6.87 6.87 6.89 6.88 6.86 6.86 6.87 6.85 5.57 5.34 5.34 5.35 5.34 5.28 4.91 4.85 4.89 4.86 4.85 4.86 4.02 3.94 3.86 3.71 3.61 3.50 3.40 3.31 3.23 3.14 3.07 2.99 2.92 2.85 2.78 2.64 2.58 2.57 2.58 2.56 2.51 2.45 2.41 2.37 2.34 2.28 2.24 2.20 2.19 2.15 2.11 2.09 2.05 2.03 2.00 1.98 1.94 1.92 1.89 1.87 1.85 1.82 1.80 1.78 1.76 1.75 1.72 1.70 1.69 1.66 1.65 1.63 1.62 1.60 1.58 1.57 1.56 1.54 1.53 1.51 1.42 1.39 1.37 1.37 1.38 1.38 1.37 1.37 1.35 1.34 1.33 1.32 1.31 1.30 1.29 1.29 1.28 1.28 1.28 1.27 1.26 1.25 1.24 1.23 1.22 1.22 1.21 1.20 1.20 1.20 1.19 1.19 1.18 1.18 1.17 1.16 1.16 1.15 1.15 1.14 1.14 1.13 1.13 1.13 1.13 1.12 1.12 1.11 1.10 1.11 1.10 1.09 1.09 1.09 1.08 1.08 1.07 1.07 1.07 1.07 1.07 1.07 1.07 1.06 1.06 1.06 1.06 1.05 1.05 1.05 1.04 1.04 1.04 1.04 1.04 1.04 1.03 1.03 1.03 1.03 1.03 1.03 1.03 1.02 1.02 1.02 1.02 1.02 1.02 1.02 1.02 1.02  0 0.338529 3.158854 1.500524 0.341337 3.198756 1.500524 0.000000 0.000000 0.000000 0.000000 0.000000 1221.540581 x 10.111025
VERTEX2 6 0.375451 3.832568 1.495141
ROBOTLASER1 0 -1.570796 3.141720 0.008727 50.000000 0.100000 0 360 1.64 1.65 1.68 1.70 1.65 1.65 7.23 7.24 7.15 7.17 6.10 4.67 6.01 3.57 3.56 1.96 1.94 2.05 3.69 1.68 1.72 1.62 1.61 1.62 1.62 1.64 1.68 1.68 1.69 1.69 1.70 1.70 1.70 1.70 1.70 1.72 1.72 1.72 1.73 1.74 1.75 1.75 1.75 1.76 1.76 1.76 1.77 1.78 1.79 1.80 1.80 1.81 1.82 1.84 1.84 1.84 1.85 1.86 1.87 1.88 1.89 1.90 1.91 1.91 1.93 1.94 1.95 1.96 1.98 1.98 2.00 2.01 2.03 2.04 2.04 2.07 2.08 2.09 2.10 2.12 2.13 2.15 2.17 2.17 2.19 2.21 2.23 2.24 2.27 2.29 2.31 2.32 2.35 2.35 2.34 2.34 2.35 2.42 2.46 2.50 2.52 2.54 2.57 2.60 2.64 2.66 2.69 2.73 2.76 2.80 2.83 2.87 2.90 2.93 2.98 3.02 3.07 3.11 3.15 3.20 3.25 3.29 3.35 3.40 3.46 3.53 3.53 3.61 5.20 5.04 4.91 4.77 4.64 4.47 4.45 4.44 4.43 4.41 4.48 4.69 4.80 4.83 4.86 4.84 4.84 4.84 4.96 5.32 5.99 6.18 6.29 6.36 6.36 6.34 6.33 6.34 6.34 6.32 6.32 6.31 6.29 6.28 6.28 6.26 6.22 6.20 9.16 8.44 8.41 8.39 8.37 8.35 8.36 8.34 8.36 8.36 8.35 8.34 8.36 8.46 8.48 8.46 6.31 6.21 6.18 6.21 6.22 6.22 6.24 6.23 6.24 6.23 6.24 6.24 6.23 6.22 6.23 6.23 6.17 4.86 4.71 4.69 4.71 4.71 4.66 4.64 4.28 4.24 4.26 4.27 4.23 4.23 4.25 4.27 3.40 3.30 3.30 3.20 3.11 3.04 2.97 2.89 2.83 2.77 2.71 2.65 2.61 2.55 2.50 2.44 2.40 2.35 2.31 2.26 2.23 2.19 2.16 2.07 2.00 1.99 2.00 1.99 2.01 1.97 1.95 1.93 1.90 1.88 1.86 1.83 1.81 1.78 1.77 1.74 1.73 1.71 1.69 1.67 1.65 1.64 1.62 1.61 1.59 1.58 1.57 1.55 1.54 1.52 1.51 1.50 1.48 1.47 1.45 1.44 1.43 1.42 1.40 1.39 1.38 1.37 1.36 1.35 1.34 1.34 1.34 1.33 1.31 1.31 1.29 1.28 1.28 1.27 1.27 1.26 1.25 1.25 1.23 1.22 1.22 1.21 1.21 1.20 1.20 1.19 1.19 1.19 1.17 1.18 1.17 1.16 1.16 1.15 1.15 1.14 1.14 1.13 1.13 1.14 1.11 1.08 1.04 1.03 1.03 1.04 1.03 1.03 1.05 1.06 1.05 1.05 1.05 1.04 1.03 1.04 1.04 1.03 1.03 1.03 1.03 1.03 1.03 1.03 1.03 1.03 1.03 1.03 1.03 1.03 1.03 1.03 1.03 1.03 1.02 1.02 1.02 1.02 1.02 1.02 1.02 1.02  0 0.372428 3.792683 1.495141 0.375451 3.832568 1.495141 0.000000 0.000000 0.000000 0.000000 0.000000 1222.820585 x 11.324235
VERTEX2 7 0.424076 4.486347 1.482622
ROBOTLASER1 0 -1.570796 3.141720 0.008727 50.000000 0.100000 0 360 1.64 1.65 1.64 1.64 1.64 1.64 1.64 1.64 1.65 1.65 1.65 1.65 1.65 1.66 1.66 1.66 1.65 1.66 1.66 1.67 1.67 1.66 1.66 1.67 1.67 1.67 1.67 1.68 1.69 1.69 1.69 1.69 1.70 1.70 1.71 1.71 1.72 1.72 1.72 1.72 1.73 1.74 1.75 1.76 1.76 1.76 1.77 1.77 1.77 1.78 1.79 1.79 1.81 1.81 1.82 1.83 1.84 1.85 1.85 1.86 1.87 1.88 1.89 1.90 1.91 1.92 1.92 1.94 1.94 1.92 1.92 1.92 1.94 1.99 2.00 2.02 2.03 2.05 2.06 2.07 2.09 2.11 2.12 2.13 2.15 2.17 2.19 2.21 2.22 2.24 2.25 2.28 2.30 2.32 2.35 2.35 2.38 2.42 2.43 2.45 2.49 2.51 2.54 2.56 2.59 2.62 2.66 2.68 2.71 2.74 2.78 2.82 2.85 2.88 2.93 2.97 2.97 2.96 2.99 6.46 6.51 4.76 4.68 4.55 4.40 4.24 4.09 3.89 3.86 3.86 3.86 3.82 3.83 3.96 4.09 4.20 4.21 4.25 4.27 4.23 4.24 4.22 4.30 4.44 5.11 5.26 5.40 5.56 5.69 5.72 5.73 5.72 5.71 5.70 5.73 5.71 5.71 5.69 5.69 5.67 5.67 5.65 5.65 5.61 5.59 5.59 8.53 7.89 7.77 7.76 7.74 7.73 7.72 7.72 7.72 7.71 7.71 7.71 7.70 7.70 7.75 7.85 7.83 7.86 5.65 5.58 5.54 5.56 5.58 5.57 5.59 5.58 5.59 5.59 5.61 5.61 5.62 5.58 5.58 5.58 5.61 5.60 5.49 4.43 4.15 4.06 4.07 4.07 4.08 4.08 4.02 3.99 3.71 3.60 3.62 3.62 3.63 3.59 3.60 3.61 3.64 3.64 3.67 2.90 2.70 2.70 2.69 2.64 2.58 2.54 2.47 2.42 2.38 2.34 2.29 2.26 2.21 2.18 2.14 2.10 2.08 2.05 2.01 1.98 1.96 1.93 1.91 1.88 1.85 1.83 1.80 1.78 1.76 1.74 1.72 1.70 1.68 1.66 1.65 1.63 1.61 1.60 1.54 1.51 1.48 1.47 1.48 1.47 1.50 1.49 1.50 1.48 1.47 1.46 1.44 1.44 1.42 1.41 1.40 1.39 1.38 1.37 1.36 1.36 1.35 1.33 1.32 1.31 1.30 1.30 1.30 1.29 1.27 1.27 1.27 1.26 1.25 1.25 1.23 1.23 1.22 1.21 1.20 1.19 1.20 1.20 1.19 1.17 1.17 1.16 1.17 1.17 1.16 1.15 1.15 1.14 1.14 1.14 1.14 1.13 1.13 1.12 1.12 1.11 1.11 1.12 1.10 1.10 1.09 1.09 1.09 1.08 1.08 1.08 1.08 1.08 1.08 1.08 1.08 1.08 1.08 1.08 1.05 1.05 1.06 1.06 1.06 1.06 1.06 1.06 1.06 1.07 1.06 1.06 1.04 1.05 1.05 1.05 1.05 1.04  0 0.420554 4.446503 1.482622 0.424076 4.486347 1.482622 0.000000 0.000000 0.000000 0.000000 0.000000 1224.100727 x 12.651874
VERTEX2 8 0.487103 5.145885 1.462481
ROBOTLASER1 0 -1.570796 3.141720 0.008727 50.000000 0.100000 0 360 1.63 1.63 1.63 1.64 1.62 1.63 1.63 1.62 1.62 1.63 1.62 1.63 1.62 1.62 1.62 1.62 1.63 1.63 1.63 1.64 1.64 1.64 1.64 1.65 1.64 1.65 1.65 1.65 1.66 1.66 1.67 1.67 1.67 1.63 1.63 1.63 1.64 1.64 1.65 1.68 1.68 1.69 1.70 1.70 1.71 1.72 1.72 1.73 1.74 1.74 1.74 1.75 1.76 1.76 1.76 1.78 1.79 1.80 1.80 1.81 1.82 1.83 1.84 1.85 1.85 1.86 1.88 1.89 1.90 1.91 1.92 1.93 1.94 1.95 1.97 1.98 1.99 2.00 2.02 2.04 2.04 2.06 2.08 2.10 2.11 2.12 2.14 2.16 2.18 2.18 2.20 2.23 2.25 2.26 2.28 2.30 2.32 2.33 2.37 2.40 2.42 2.43 2.43 2.42 2.45 5.26 5.42 5.62 5.59 5.57 5.62 5.67 5.83 6.06 5.88 4.13 4.03 3.74 3.56 3.28 3.28 3.27 3.26 3.22 3.23 3.27 3.37 3.44 3.50 3.57 3.60 3.60 3.65 3.62 3.61 3.61 3.60 3.65 3.72 3.87 4.41 4.51 4.61 4.73 4.85 4.98 5.04 5.12 5.12 5.09 5.09 5.06 5.06 5.06 5.06 5.05 5.04 5.02 5.01 5.00 4.99 4.99 4.99 4.93 4.93 7.91 7.90 7.87 7.18 7.09 7.09 7.07 7.09 7.08 7.08 7.05 7.05 7.04 7.07 7.03 7.04 7.05 7.10 7.23 7.18 7.25 7.83 4.98 4.89 4.87 4.91 4.91 4.92 4.92 4.92 4.93 4.93 4.93 4.94 4.94 4.96 4.92 4.93 4.93 4.94 4.94 4.92 4.82 4.61 3.80 3.56 3.43 3.41 3.41 3.42 3.43 3.45 3.40 3.39 3.34 3.23 3.05 3.00 2.99 3.01 3.03 3.00 2.99 3.00 3.00 3.03 3.05 3.07 3.08 3.11 3.11 3.14 3.14 2.25 2.11 2.12 2.12 2.10 2.07 2.03 2.01 1.97 1.95 1.91 1.90 1.87 1.84 1.82 1.80 1.77 1.75 1.74 1.72 1.70 1.68 1.66 1.63 1.62 1.61 1.60 1.58 1.56 1.55 1.53 1.52 1.51 1.48 1.46 1.45 1.43 1.43 1.42 1.41 1.40 1.38 1.37 1.36 1.35 1.35 1.34 1.32 1.31 1.30 1.29 1.28 1.28 1.28 1.27 1.26 1.25 1.24 1.23 1.23 1.22 1.21 1.20 1.20 1.20 1.19 1.19 1.19 1.18 1.17 1.17 1.16 1.12 1.10 1.08 1.09 1.09 1.08 1.13 1.13 1.13 1.13 1.12 1.13 1.12 1.12 1.12 1.12 1.12 1.12 1.11 1.11 1.11 1.11 1.10 1.10 1.10 1.09 1.09 1.08 1.09 1.08 1.08 1.08 1.08 1.07 1.07 1.07 1.07 1.07 1.07 1.07 1.07 1.07 1.07 1.07 1.06 1.06 1.06 1.06 1.06 1.06  0 0.482779 5.106120 1.462481 0.487103 5.145885 1.462481 0.000000 0.000000 0.000000 0.000000 0.000000 1225.380423 x 13.971435
VERTEX2 9 0.549456 5.795880 1.445982
ROBOTLASER1 0 -1.570796 3.141720 0.008727 50.000000 0.100000 0 360 1.59 1.59 1.60 1.59 1.59 1.60 1.59 1.59 1.58 1.58 1.59 1.59 1.59 1.59 1.59 1.60 1.60 1.60 1.60 1.61 1.61 1.61 1.61 1.61 1.61 1.62 1.62 1.62 1.63 1.63 1.64 1.64 1.64 1.64 1.64 1.65 1.65 1.65 1.65 1.65 1.66 1.66 1.67 1.67 1.68 1.68 1.69 1.70 1.71 1.71 1.72 1.72 1.73 1.74 1.75 1.76 1.76 1.76 1.77 1.78 1.79 1.80 1.81 1.82 1.82 1.83 1.84 1.85 1.86 1.87 1.88 1.90 1.91 1.92 1.93 1.94 1.95 1.97 1.98 2.00 1.98 1.97 1.99 1.99 6.76 6.45 6.43 6.43 6.49 6.42 6.36 6.30 6.26 6.20 6.15 6.08 6.03 4.75 4.88 5.87 5.55 5.32 5.69 5.67 5.68 3.56 3.55 2.77 2.75 2.74 2.74 2.71 2.69 2.67 2.72 2.81 2.84 2.88 2.93 2.96 3.00 3.04 3.03 3.08 3.09 3.04 3.04 3.03 3.02 3.03 3.09 3.14 3.21 3.38 3.73 3.82 3.90 3.97 4.07 4.14 4.24 4.33 4.43 4.43 4.50 4.48 4.48 4.46 4.45 4.43 4.46 4.44 4.44 4.42 4.41 4.41 4.41 4.38 4.38 4.37 4.36 4.35 4.32 4.29 4.30 7.28 7.27 7.25 6.61 6.46 6.46 6.44 6.44 6.42 6.41 6.40 6.40 6.39 6.39 6.41 6.42 6.41 6.41 6.42 6.52 6.54 6.55 6.57 7.18 4.37 4.32 4.24 4.25 4.29 4.29 4.29 4.29 4.29 4.30 4.29 4.31 4.31 4.32 4.32 4.34 4.33 4.30 4.31 4.32 4.31 4.33 4.33 4.26 4.15 4.00 3.88 3.74 3.11 2.94 2.86 2.82 2.81 2.83 2.83 2.84 2.84 2.84 2.80 2.79 2.77 2.70 2.65 2.60 2.47 2.40 2.40 2.42 2.42 2.45 2.44 2.42 2.41 2.43 2.43 2.46 2.49 2.52 2.53 2.54 2.55 2.58 2.59 2.62 2.63 2.65 2.66 2.70 2.71 2.74 2.75 2.79 1.83 1.64 1.60 1.60 1.60 1.61 1.61 1.58 1.57 1.55 1.54 1.52 1.52 1.50 1.48 1.46 1.45 1.45 1.43 1.42 1.41 1.40 1.38 1.37 1.36 1.35 1.35 1.33 1.32 1.31 1.30 1.29 1.29 1.29 1.28 1.27 1.26 1.25 1.23 1.23 1.23 1.22 1.21 1.20 1.20 1.20 1.20 1.19 1.19 1.18 1.18 1.18 1.17 1.16 1.16 1.15 1.15 1.14 1.14 1.14 1.14 1.13 1.13 1.12 1.12 1.11 1.11 1.11 1.10 1.10 1.10 1.09 1.09 1.08 1.08 1.08 1.08 1.08 1.08 1.08 1.07 1.07 1.07 1.06 1.06 1.06 1.06 1.06 1.06 1.05 1.06 1.05 1.05 1.05 1.05 1.05 1.04 1.04 1.04  0 0.544475 5.756190 1.445982 0.549456 5.795880 1.445982 0.000000 0.000000 0.000000 0.000000 0.000000 1226.661157 x 15.213558
VERTEX2 10 0.638364 6.463477 1.431076
ROBOTLASER1 0 -1.570796 3.141720 0.008727 50.000000 0.100000 0 360 1.56 1.56 1.56 1.56 1.55 1.55 1.55 1.55 1.56 1.56 1.55 1.56 1.56 1.56 1.56 1.57 1.57 1.57 1.57 1.57 1.57 1.58 1.58 1.58 1.58 1.59 1.58 1.59 1.59 1.59 1.60 1.60 1.60 1.61 1.61 1.61 1.61 1.62 1.62 1.62 1.63 1.63 1.64 1.64 1.65 1.65 1.66 1.62 1.62 1.63 1.64 1.64 1.63 6.68 6.58 6.44 6.33 6.20 6.10 5.97 5.86 5.77 5.68 5.63 5.63 5.64 5.66 5.56 5.69 5.75 5.78 5.80 5.84 6.17 6.30 6.51 6.44 6.36 6.04 5.96 6.02 6.06 6.00 5.93 5.88 5.82 5.76 4.30 4.29 4.42 2.26 2.25 2.24 2.22 2.22 2.18 2.17 2.17 2.21 2.26 2.29 2.31 2.34 2.36 2.39 2.42 2.43 2.46 2.50 2.49 2.50 2.53 2.55 2.52 2.49 2.49 2.47 2.45 2.46 2.50 2.53 2.56 2.60 2.67 2.80 3.07 3.12 3.16 3.22 3.26 3.31 3.37 3.42 3.49 3.55 3.61 3.68 3.74 3.83 3.83 3.89 3.88 3.87 3.84 3.84 3.82 3.83 3.84 3.84 3.82 3.81 3.80 3.79 3.76 3.75 3.74 3.74 3.72 3.72 3.70 3.70 3.65 3.64 3.64 6.66 6.64 6.63 6.62 6.60 5.92 5.82 5.80 5.80 5.79 5.79 5.78 5.78 5.77 5.76 5.76 5.77 5.77 5.78 5.76 5.76 5.77 5.80 5.91 5.93 5.90 5.98 6.54 6.54 3.69 3.67 3.58 3.59 3.61 3.63 3.63 3.63 3.63 3.64 3.63 3.65 3.65 3.66 3.66 3.67 3.68 3.69 3.69 3.68 3.66 3.69 3.67 3.68 3.69 3.71 3.67 3.62 3.52 3.43 3.34 3.25 3.17 3.09 3.02 2.95 2.49 2.36 2.31 2.26 2.21 2.21 2.21 2.22 2.22 2.24 2.25 2.27 2.26 2.22 2.21 2.22 2.20 2.16 2.12 2.09 2.06 2.03 2.00 1.96 1.90 1.85 1.85 1.86 1.87 1.91 1.92 1.91 1.90 1.89 1.89 1.92 1.92 1.95 1.96 2.00 2.01 2.04 2.04 2.07 2.08 2.11 2.12 2.16 2.18 2.21 2.22 2.25 2.27 2.31 2.33 2.37 2.39 2.42 2.44 2.49 2.49 2.53 2.55 2.59 6.03 5.83 4.83 4.71 4.33 4.83 4.84 4.92 5.49 5.45 5.44 1.23 1.21 1.20 1.20 1.20 1.19 1.22 1.23 1.22 1.21 1.21 1.20 1.19 1.19 1.18 1.18 1.18 1.17 1.17 1.17 1.16 1.16 1.15 1.14 1.14 1.14 1.14 1.13 1.13 1.13 1.12 1.12 1.11 1.11 1.11 1.11 1.11 1.10 1.10 1.10 1.09 1.09 1.09 1.09 1.08 1.09 1.08 1.08 1.08 1.08 1.08 1.08 1.08 1.08 1.08 1.08  0 0.632793 6.423867 1.431076 0.638364 6.463477 1.431076 0.000000 0.000000 0.000000 0.000000 0.000000 1227.950291 x 16.511174
VERTEX2 11 0.737479 7.074213 1.416491
ROBOTLASER1 0 -1.570796 3.141720 0.008727 50.000000 0.100000 0 360 1.54 1.54 1.53 1.51 1.50 1.50 1.50 1.50 1.57 6.09 4.96 3.18 3.20 7.01 7.08 3.01 4.71 5.40 3.52 5.26 3.52 3.60 3.66 2.86 2.86 7.16 7.10 7.12 7.23 7.24 7.25 7.25 7.27 7.27 7.30 7.31 7.32 7.24 7.25 7.28 7.29 7.16 6.92 6.71 6.57 6.39 6.25 6.06 5.91 5.77 5.62 5.50 5.39 5.34 5.32 5.32 5.34 5.22 5.33 5.40 5.42 5.43 5.46 1.86 1.86 1.85 1.84 1.81 1.78 1.74 1.74 1.75 1.77 1.81 1.83 1.84 1.85 1.87 1.88 1.89 1.90 1.91 1.92 1.93 1.95 1.95 1.97 1.99 2.01 2.01 2.00 2.00 2.02 2.05 2.04 1.96 1.98 1.97 1.96 1.94 1.94 1.96 1.97 1.99 2.02 2.03 2.05 2.08 2.09 2.22 2.42 2.45 2.49 2.51 2.55 2.57 2.61 2.64 2.68 2.70 2.73 2.77 2.81 2.84 2.89 2.93 2.97 3.01 3.06 3.10 3.16 3.20 3.24 3.22 3.29 3.28 3.27 3.25 3.24 3.23 3.22 3.20 3.23 3.22 3.21 3.18 3.18 3.17 3.16 3.15 3.15 3.13 3.13 3.11 3.12 3.11 3.11 3.09 3.07 3.03 3.03 3.01 5.98 6.04 6.03 6.02 6.01 6.00 6.00 5.89 5.24 5.19 5.18 5.16 5.16 5.17 5.17 5.15 5.16 5.14 5.14 5.13 5.13 5.15 5.15 5.12 5.13 5.13 5.16 5.25 5.29 5.26 5.28 5.36 5.91 5.91 5.92 5.92 3.07 3.04 2.96 2.96 2.98 3.00 3.01 3.01 3.02 3.02 3.03 3.03 3.04 3.04 3.04 3.04 3.05 3.06 3.07 3.07 3.09 3.08 3.08 3.06 3.06 3.07 3.08 3.09 3.10 3.11 3.13 3.09 3.03 2.99 2.92 2.86 2.80 2.75 2.68 2.64 2.59 2.54 2.50 2.44 2.40 2.36 2.32 2.28 2.24 1.99 1.85 1.81 1.79 1.76 1.73 1.71 1.68 1.68 1.67 1.67 1.69 1.69 1.71 1.71 1.73 1.75 1.76 1.76 1.71 1.70 1.71 1.71 1.71 1.69 1.68 1.66 1.64 1.63 1.61 1.60 1.58 1.56 1.55 1.54 1.52 1.51 1.49 1.48 1.43 1.41 1.41 1.40 1.41 1.42 1.48 1.48 1.48 1.49 1.50 1.47 1.48 1.49 1.53 1.54 1.59 1.62 1.66 1.66 1.71 1.73 1.77 1.79 1.85 1.87 1.92 1.94 2.01 2.04 2.10 2.12 2.18 2.19 2.26 2.29 7.26 7.24 7.11 7.07 7.06 7.04 6.23 3.55 3.55 6.29 6.59 3.33 3.33 3.31 3.36 3.35 3.36 3.38 3.38 3.26 3.94 3.95 3.93 3.14 2.99 3.17 3.90 3.90 3.64 3.30 3.22 3.24 3.17 3.15 3.17 3.23 3.31 3.33  0 0.731331 7.034690 1.416491 0.737479 7.074213 1.416491 0.000000 0.000000 0.000000 0.000000 0.000000 1229.220630 x 17.880845
VERTEX2 12 0.838307 7.724444 1.403095
ROBOTLASER1 0 -1.570796 3.141720 0.008727 50.000000 0.100000 0 360 3.43 3.26 3.06 3.57 3.75 5.93 5.23 4.49 6.96 6.99 6.99 6.96 6.98 6.99 6.98 6.99 7.00 6.98 7.00 7.10 7.09 7.10 7.11 7.11 7.10 1.61 1.61 1.58 1.52 1.48 1.47 1.48 1.48 1.51 1.53 1.53 1.54 1.53 1.54 1.54 1.54 1.54 1.54 1.55 1.55 1.56 1.56 1.57 1.57 1.58 1.58 1.59 1.60 1.60 1.61 1.61 1.62 1.62 1.61 1.60 1.61 1.61 1.63 1.63 1.57 1.56 1.56 1.53 1.51 1.50 1.50 1.51 1.52 1.53 1.54 1.54 1.55 1.56 1.57 1.58 1.59 1.60 1.61 1.66 1.76 1.87 1.88 1.89 1.91 1.92 1.93 1.95 1.97 1.99 2.00 2.01 2.03 2.05 2.07 2.09 2.11 2.12 2.14 2.17 2.19 2.20 2.22 2.25 2.27 2.29 2.31 2.33 2.36 2.40 2.42 2.44 2.47 2.51 2.54 2.57 2.61 2.65 2.67 2.65 2.69 2.70 2.69 2.67 2.66 2.64 2.64 2.62 2.61 2.60 2.63 2.62 2.61 2.59 2.59 2.57 2.57 2.54 2.54 2.53 2.53 2.51 2.51 2.50 2.50 2.47 2.47 2.45 2.45 2.44 2.42 2.39 2.39 2.37 2.40 5.33 5.33 5.33 5.40 5.39 5.39 5.37 5.37 5.35 5.35 4.80 4.59 4.52 4.53 4.51 4.51 4.51 4.56 4.54 4.55 4.54 4.52 4.52 4.51 4.51 4.48 4.49 4.48 4.46 4.46 4.46 4.48 4.54 4.63 4.62 4.62 4.64 4.74 5.27 5.27 5.27 5.28 5.28 5.29 5.29 2.42 2.41 2.36 2.31 2.31 2.32 2.36 2.36 2.37 2.36 2.38 2.37 2.39 2.39 2.39 2.40 2.42 2.42 2.43 2.42 2.43 2.43 2.44 2.44 2.46 2.46 2.49 2.49 2.47 2.45 2.47 2.49 2.49 2.49 2.51 2.52 2.54 2.54 2.54 2.49 2.46 2.44 2.40 2.35 2.32 2.28 2.25 2.21 2.18 2.15 2.12 2.10 2.06 2.04 2.01 1.99 1.96 1.94 1.91 1.90 1.87 1.85 1.83 1.81 1.79 1.77 1.75 1.74 1.72 1.70 1.69 1.67 1.65 1.64 1.52 1.43 1.36 1.34 1.33 1.32 1.31 1.30 1.29 1.29 1.27 1.26 1.25 1.24 1.23 1.22 1.21 1.21 1.23 1.24 1.27 1.28 1.29 1.31 1.34 1.36 1.35 1.33 1.32 1.31 1.30 1.30 1.33 1.33 1.32 1.32 1.31 1.30 1.30 1.29 1.29 1.28 1.27 1.27 1.26 1.26 1.25 1.25 1.24 1.24 1.23 1.23 1.22 1.22 1.22 1.21 1.20 1.20 1.20 1.20 1.19 1.18 1.16 1.16 1.16 1.16 1.15 1.15 1.22 1.24 1.24 1.24 1.25 1.24 1.63 1.88 2.04 2.13 6.05 3.27 3.25 3.26  0 0.831630 7.685004 1.403095 0.838307 7.724444 1.403095 0.000000 0.000000 0.000000 0.000000 0.000000 1230.500582 x 19.071481
VERTEX2 13 0.962490 8.364484 1.411911
ROBOTLASER1 0 -1.570796 3.141720 0.008727 50.000000 0.100000 0 360 1.44 1.44 1.44 1.44 1.44 1.44 1.44 1.43 1.43 1.43 1.44 1.44 1.41 1.40 1.40 1.40 1.40 1.33 1.35 1.27 1.25 1.25 1.25 1.25 1.25 1.25 1.25 1.26 1.27 1.26 1.27 1.27 1.27 1.27 1.27 1.27 1.28 1.28 1.28 1.29 1.29 1.34 1.38 1.45 1.45 1.48 1.48 1.50 1.51 1.51 1.52 1.52 1.53 1.53 1.53 1.54 1.55 1.55 1.55 1.56 1.57 1.57 1.58 1.60 1.60 1.60 1.61 1.62 1.63 1.63 1.65 1.65 1.66 1.66 1.67 1.68 1.69 1.70 1.72 1.73 1.74 1.75 1.76 1.77 1.78 1.79 1.80 1.82 1.83 1.84 1.85 1.87 1.88 1.90 1.92 1.92 1.94 1.96 1.97 1.99 2.01 2.03 2.05 2.06 2.09 2.11 2.11 2.10 2.12 2.15 2.15 2.13 2.12 2.09 2.08 2.06 2.07 2.04 2.03 2.01 2.03 2.04 2.03 2.01 2.01 2.00 1.99 1.97 1.97 1.95 1.94 1.93 1.93 1.91 1.91 1.89 1.89 1.87 1.87 1.86 1.86 1.84 1.84 1.83 1.83 1.79 1.79 1.77 1.77 1.75 1.81 4.84 4.85 4.78 4.73 4.71 4.68 4.68 4.68 4.67 4.74 4.74 4.74 4.72 4.72 4.71 4.70 4.68 4.33 3.96 3.89 3.88 3.90 3.88 3.88 3.88 3.93 3.90 3.93 3.90 3.92 3.88 3.89 3.87 3.89 3.86 3.83 3.86 3.83 3.82 3.82 3.81 3.84 3.84 3.94 3.98 4.02 3.96 4.01 4.11 4.60 4.61 4.62 4.62 4.63 4.63 4.64 4.64 4.65 4.45 4.26 4.06 3.91 1.87 1.81 1.80 1.79 1.73 1.69 1.68 1.69 1.70 1.75 1.74 1.76 1.76 1.77 1.77 1.78 1.78 1.78 1.78 1.80 1.80 1.81 1.81 1.82 1.82 1.83 1.84 1.86 1.86 1.86 1.87 1.88 1.89 1.90 1.91 1.93 1.92 1.90 1.89 1.90 1.92 1.93 1.93 1.95 1.95 1.97 1.98 2.01 2.01 2.00 1.96 1.95 1.94 1.92 1.91 1.89 1.87 1.85 1.83 1.81 1.79 1.77 1.77 1.75 1.72 1.71 1.69 1.67 1.66 1.65 1.64 1.62 1.61 1.59 1.58 1.57 1.56 1.54 1.54 1.53 1.52 1.51 1.49 1.48 1.47 1.46 1.46 1.45 1.45 1.43 1.42 1.41 1.41 1.40 1.39 1.38 1.38 1.38 1.37 1.36 1.35 1.34 1.33 1.32 1.32 1.31 1.31 1.31 1.30 1.30 1.29 1.29 1.28 1.28 1.27 1.27 1.26 1.24 1.23 1.21 1.19 1.07 1.06 1.06 1.06 1.05 1.05 1.04 1.04 1.04 1.04 1.04 1.03 1.03 1.03 1.03 1.03 1.03 1.03 1.03 1.03 1.03 1.02 1.02 1.01 1.03 1.02  0 0.956161 8.324986 1.411911 0.962490 8.364484 1.411911 0.000000 0.000000 0.000000 0.000000 0.000000 1231.790325 x 20.286592
VERTEX2 14 1.052306 9.056984 1.386185
ROBOTLASER1 0 -1.570796 3.141720 0.008727 50.000000 0.100000 0 360 1.37 1.38 1.37 1.37 1.37 1.37 1.37 1.37 1.37 1.37 1.37 1.37 1.37 1.37 1.37 1.37 1.37 1.38 1.38 1.38 1.38 1.39 1.39 1.39 1.39 1.39 1.39 1.39 1.39 1.40 1.40 1.40 1.40 1.40 1.40 1.40 1.40 1.40 1.40 1.40 1.41 1.41 1.42 1.42 1.42 1.43 1.43 1.43 1.44 1.44 1.45 1.46 1.46 1.47 1.47 1.47 1.47 1.48 1.49 1.50 1.50 1.51 1.52 1.52 1.53 1.54 1.55 1.55 1.56 1.56 1.58 1.58 1.58 1.60 1.60 1.61 1.62 1.63 1.64 1.64 1.65 1.63 1.64 1.64 1.67 1.69 1.67 1.63 1.63 1.60 1.59 1.56 1.57 1.54 1.53 1.50 1.50 1.52 1.54 1.51 1.50 1.48 1.47 1.46 1.45 1.43 1.42 1.40 1.40 1.39 1.38 1.36 1.36 1.34 1.34 1.32 1.32 1.31 1.31 1.29 1.29 1.27 1.27 1.26 1.26 1.24 1.24 1.23 1.21 1.16 1.17 1.16 1.16 1.15 1.17 1.20 1.25 4.23 4.26 4.25 4.23 4.22 4.21 4.18 4.18 4.15 4.22 4.27 4.23 4.24 4.18 4.10 4.09 4.07 4.05 4.05 4.05 4.04 4.13 4.12 4.12 4.10 4.09 4.08 4.08 4.07 4.06 3.43 3.29 3.24 3.23 3.22 3.22 3.20 3.20 3.19 3.21 3.21 3.21 3.20 3.20 3.19 3.17 3.16 3.16 3.17 3.17 3.17 3.17 3.21 3.19 3.17 3.17 3.17 3.17 3.17 3.19 3.22 3.34 3.32 3.37 3.38 3.32 3.35 3.45 3.87 4.00 4.00 4.01 4.01 4.02 4.02 4.02 4.03 4.01 3.81 3.67 3.54 3.41 3.31 3.19 3.09 3.00 2.92 2.83 2.74 2.69 2.62 2.15 2.05 1.72 1.30 1.20 1.21 1.20 1.19 1.18 1.18 1.16 1.13 1.10 1.11 1.11 1.11 1.12 1.12 1.18 1.18 1.19 1.19 1.20 1.20 1.22 1.21 1.22 1.22 1.24 1.23 1.25 1.25 1.27 1.27 1.29 1.29 1.30 1.30 1.32 1.32 1.33 1.33 1.35 1.35 1.38 1.38 1.39 1.39 1.42 1.42 1.45 1.45 1.44 1.43 1.43 1.43 1.46 1.47 1.47 1.48 1.51 1.52 1.54 1.55 1.58 1.59 1.59 1.57 1.55 1.54 1.54 1.54 1.54 1.52 1.51 1.50 1.49 1.48 1.47 1.46 1.46 1.45 1.44 1.43 1.43 1.42 1.42 1.41 1.40 1.39 1.39 1.39 1.38 1.38 1.37 1.37 1.35 1.35 1.34 1.33 1.33 1.32 1.32 1.31 1.31 1.31 1.31 1.30 1.30 1.30 1.29 1.29 1.28 1.28 1.28 1.28 1.27 1.27 1.26 1.26 1.26 1.26 1.25 1.26 1.25 1.25 1.25 1.24 1.24 1.25 1.24 1.24  0 1.044964 9.017662 1.386185 1.052306 9.056984 1.386185 0.000000 0.000000 0.000000 0.000000 0.000000 1233.060840 x 21.611419
VERTEX2 15 1.177149 9.654491 1.376522
ROBOTLASER1 0 -1.570796 3.141720 0.008727 50.000000 0.100000 0 360 1.31 1.31 1.31 1.31 1.31 1.31 1.31 1.31 1.31 1.31 1.31 1.31 1.31 1.31 1.31 1.31 1.31 1.32 1.31 1.31 1.31 1.31 1.31 1.31 1.31 1.31 1.31 1.31 1.31 1.32 1.32 1.32 1.32 1.32 1.32 1.32 1.32 1.33 1.33 1.30 1.31 1.30 1.31 1.33 1.33 1.33 1.31 1.25 1.25 1.17 1.17 1.12 1.11 1.11 1.11 1.11 1.12 1.09 1.09 1.04 1.05 1.01 1.00 0.97 0.96 0.93 0.93 0.91 0.91 0.88 0.88 0.85 0.84 0.82 0.82 0.80 0.80 0.78 0.77 0.72 0.72 0.67 0.66 0.65 0.65 0.62 0.63 0.63 0.63 0.64 0.65 0.65 0.65 0.68 0.68 0.68 0.69 0.68 0.67 8.31 8.42 8.47 8.49 4.72 4.69 4.63 4.58 4.55 4.57 7.84 7.80 7.73 7.69 7.63 4.33 4.28 4.24 4.14 4.02 3.98 3.96 3.92 3.84 3.53 3.46 3.40 3.39 3.37 3.37 3.40 3.47 3.54 3.67 3.66 3.64 3.62 3.60 3.58 3.57 3.54 3.54 3.53 3.60 3.64 3.59 3.61 3.56 3.50 3.47 3.46 3.43 3.41 3.42 3.41 3.41 3.41 3.48 3.47 3.47 3.45 3.45 3.43 3.43 3.42 3.42 3.41 2.77 2.61 2.62 2.59 2.59 2.59 2.62 2.59 2.59 2.59 2.62 2.62 2.66 2.64 2.64 2.62 2.64 2.63 2.62 2.60 2.61 2.61 2.61 2.60 2.60 2.54 2.53 2.61 2.60 2.55 2.54 2.54 2.55 2.53 2.54 2.54 2.56 2.56 2.59 2.73 2.78 2.77 2.69 2.67 2.76 2.83 3.32 3.35 3.36 3.36 3.37 3.37 3.39 3.38 3.40 3.40 3.42 3.33 3.16 3.10 3.01 2.93 2.85 2.78 2.70 2.64 2.58 2.51 2.46 2.41 2.35 2.30 2.25 2.20 2.17 2.12 2.12 2.12 2.14 2.14 2.16 2.06 1.66 1.55 1.54 1.53 1.49 1.44 1.37 1.33 1.29 1.26 1.22 1.19 1.16 1.13 1.09 1.07 1.03 1.00 0.98 0.96 0.94 0.92 0.90 0.89 0.87 0.86 0.82 0.80 0.77 0.77 0.74 0.74 0.72 0.71 0.71 0.70 0.71 0.71 0.73 0.73 0.73 0.73 0.69 0.69 0.72 0.71 0.71 0.71 0.68 0.68 0.67 0.66 0.65 0.65 0.65 0.65 0.66 0.66 0.69 0.69 0.71 0.70 0.79 0.79 0.82 0.81 0.84 0.84 0.86 0.88 0.91 0.91 0.93 0.93 0.95 0.96 1.00 1.01 1.02 1.04 1.07 1.09 1.13 1.13 1.15 1.14 1.14 1.13 1.14 1.14 1.20 1.20 1.28 1.29 1.35 1.36 1.34 1.33 1.32 1.32 1.32 1.32 1.34 1.33 1.32 1.32 1.32 1.32 1.31 1.31 1.31 1.31  0 1.169428 9.615244 1.376522 1.177149 9.654491 1.376522 0.000000 0.000000 0.000000 0.000000 0.000000 1234.350256 x 22.892953
VERTEX2 16 1.290502 10.265636 1.387389
ROBOTLASER1 0 -1.570796 3.141720 0.008727 50.000000 0.100000 0 360 2.13 2.34 2.36 1.83 1.77 1.77 1.77 1.76 1.75 1.36 1.63 1.76 1.77 1.75 1.76 1.76 1.76 1.77 1.77 1.77 1.77 1.77 1.77 1.77 1.78 1.78 1.77 1.78 1.78 1.79 6.89 1.75 1.74 1.71 6.92 1.28 1.26 1.23 1.24 6.56 6.57 6.58 6.60 6.62 6.63 6.65 6.67 6.70 6.72 6.73 6.76 6.78 6.80 6.82 6.84 6.85 6.80 6.67 81.91 6.31 6.29 6.32 6.33 6.22 6.16 6.09 6.13 6.45 5.88 5.65 5.62 5.57 5.62 7.13 7.18 7.23 7.26 7.29 4.98 4.91 4.87 4.78 4.77 4.78 7.64 7.70 7.64 7.64 7.67 7.71 7.74 7.79 4.23 4.17 4.12 4.07 4.08 7.94 7.90 7.83 7.79 7.43 7.39 3.75 3.74 3.63 3.49 3.43 3.42 3.14 2.86 2.78 2.76 2.73 2.75 2.75 2.74 2.76 2.78 2.81 3.08 3.13 3.10 3.10 3.08 3.04 3.04 3.02 3.01 2.98 2.98 2.96 2.96 3.02 3.08 3.01 3.01 3.03 2.97 2.89 2.88 2.86 2.85 2.82 2.83 2.82 2.82 2.80 2.80 2.87 2.88 2.87 2.86 2.84 2.84 2.83 2.83 2.82 2.82 2.80 2.79 2.09 1.98 1.98 1.98 1.96 1.97 1.95 1.95 1.95 1.94 1.93 1.93 1.93 1.93 1.93 1.95 1.94 1.94 1.94 1.94 1.94 1.95 1.94 1.94 1.94 1.95 1.94 1.95 1.95 1.97 1.95 1.96 1.94 1.91 2.00 2.11 1.94 1.93 1.92 1.91 1.92 1.92 1.92 1.92 1.92 1.93 1.93 1.95 1.95 1.96 2.17 2.24 2.16 2.09 2.07 2.08 2.19 2.26 2.72 2.76 2.77 2.78 2.79 2.79 2.80 2.81 2.82 2.83 2.83 2.84 2.83 2.71 2.61 2.57 2.51 2.46 2.40 2.36 2.30 2.27 2.22 2.18 2.14 2.11 2.07 2.04 2.00 1.97 1.94 1.91 1.88 1.86 1.83 1.81 1.77 1.76 1.74 1.72 1.70 1.73 1.71 1.61 1.61 1.63 1.64 1.65 1.65 1.67 1.67 1.70 1.70 1.73 1.74 1.76 1.76 1.77 1.78 1.81 1.80 1.33 1.18 1.16 1.15 1.13 1.12 1.10 1.08 1.10 1.09 1.07 1.05 1.05 1.03 1.02 1.00 0.99 0.99 0.98 0.96 0.95 0.93 0.93 0.92 0.91 0.90 0.89 0.88 0.87 0.87 0.86 0.84 0.84 0.83 0.83 0.82 0.81 0.81 0.81 0.80 0.79 0.78 0.78 0.77 0.76 0.76 0.76 0.75 0.74 0.74 0.74 0.73 0.73 0.73 0.72 0.71 0.71 0.70 0.70 0.69 0.69 0.68 0.68 0.68 0.67 0.67 0.66 0.66 0.66 0.65 0.65 0.65 0.65 0.65 0.64 0.64 0.64 0.64 0.63 0.63  0 1.283207 10.226306 1.387389 1.290502 10.265636 1.387389 0.000000 0.000000 0.000000 0.000000 0.000000 1235.630269 x 24.210778
VERTEX2 17 1.555437 10.376201 -2.286679
ROBOTLASER1 0 -1.570796 3.141720 0.008727 50.000000 0.100000 0 360 1.98 2.00 2.06 2.15 2.13 2.12 2.11 1.98 1.97 1.46 1.34 1.32 1.31 1.28 1.27 1.27 1.25 1.25 1.27 1.29 1.24 1.23 1.23 1.22 1.20 1.19 1.18 1.17 1.17 1.15 1.16 1.15 1.14 1.13 1.12 1.11 1.10 1.10 1.09 1.09 1.08 1.07 1.07 1.06 1.06 1.05 1.05 1.04 1.03 1.03 1.03 1.03 1.03 1.02 1.02 1.01 1.01 1.00 1.00 1.00 0.99 0.99 0.99 0.98 0.98 0.98 0.98 0.98 0.97 0.97 0.97 0.96 0.96 0.95 0.96 0.95 0.95 0.94 0.94 0.94 0.94 0.93 0.94 0.93 0.94 0.93 0.93 0.93 0.93 0.93 0.93 0.93 0.93 0.92 0.92 0.91 0.91 0.90 0.90 0.90 0.90 0.90 0.90 0.90 0.90 0.90 0.90 0.90 0.91 0.90 0.91 0.97 0.97 0.97 1.00 0.98 0.97 0.97 0.97 0.97 0.99 1.00 1.15 1.86 1.87 1.88 1.89 1.89 1.90 1.91 1.93 1.93 1.95 1.95 1.96 1.96 1.98 1.99 2.01 2.01 2.03 2.03 2.05 2.06 2.07 2.08 2.10 2.11 2.13 2.14 2.16 2.17 2.20 2.20 2.23 2.23 2.26 2.26 2.30 2.30 2.34 2.33 2.35 2.38 2.38 2.36 2.33 2.31 2.30 2.29 2.30 2.31 2.35 2.36 2.40 2.41 2.50 2.52 2.84 2.84 2.90 2.91 2.94 2.94 2.97 5.76 5.97 7.13 7.16 9.21 9.15 6.31 9.05 9.04 4.48 4.44 4.39 3.87 3.79 3.75 3.82 3.90 4.04 4.06 4.19 4.23 4.36 4.41 4.53 4.58 4.72 4.79 4.95 5.03 5.11 5.16 5.52 5.60 5.83 5.92 6.17 6.29 6.44 6.45 6.95 7.07 7.45 7.62 7.85 7.89 7.88 7.93 9.55 9.60 10.98 11.00 11.97 12.00 13.14 13.25 13.84 13.94 16.90 16.91 16.93 16.91 16.88 16.89 34.57 34.72 34.71 34.70 34.72 34.70 16.86 16.88 16.89 16.88 14.32 13.84 13.39 12.46 10.50 7.92 7.76 7.77 7.73 7.70 6.35 6.36 6.28 6.22 5.57 5.21 4.87 4.84 4.54 4.44 4.19 4.10 3.90 3.82 3.48 3.46 0.42 0.47 0.41 0.40 0.41 0.39 0.41 0.41 0.40 0.40 0.39 0.38 0.37 0.39 0.37 0.37 0.39 0.38 0.38 0.37 0.39 0.39 0.39 0.38 0.38 0.38 0.40 0.39 0.44 0.43 0.44 0.44 0.44 0.44 0.44 0.45 0.45 0.45 0.45 0.45 0.45 0.46 0.47 0.46 0.47 0.47 0.48 0.47 0.48 0.48 0.50 0.48 0.50 0.50 0.51 0.51 0.52 0.52 0.53 0.52 0.53 0.54 0.54 0.55 0.57 0.56 0.57 0.57 0.58 0.57 0.59 0.59 0.61 0.61 0.62 0.61  0 1.581689 10.406381 -2.286679 1.555437 10.376201 -2.286679 0.000000 0.000000 0.000000 0.000000 0.000000 1242.890377 x 31.390763
VERTEX2 18 1.282895 9.953426 -1.977898
ROBOTLASER1 0 -1.570796 3.141720 0.008727 50.000000 0.100000 0 360 0.64 0.64 0.64 0.63 0.64 0.63 0.63 0.63 0.62 0.65 0.63 0.64 0.65 0.65 0.65 0.66 0.66 0.67 0.67 0.65 0.67 0.64 0.65 0.64 0.64 0.64 0.65 0.64 0.64 0.65 0.64 0.86 0.70 1.20 1.13 1.42 1.41 1.40 1.40 1.40 1.40 1.41 1.41 1.41 1.41 1.41 1.41 1.41 1.42 1.42 1.42 1.42 1.42 1.42 1.43 1.43 1.43 1.43 1.43 1.44 1.44 1.44 1.45 1.45 1.45 1.45 1.46 1.46 1.47 1.46 1.47 1.48 1.48 1.49 1.49 1.50 1.50 1.52 1.52 1.53 1.53 1.54 1.53 1.55 1.55 1.55 1.56 1.57 1.57 1.58 1.58 1.60 1.60 1.61 1.61 1.63 1.63 1.64 1.65 1.66 1.66 1.67 1.67 1.69 1.70 1.72 1.72 1.74 1.74 1.76 1.76 1.78 1.78 1.81 1.81 1.84 1.84 1.84 1.84 1.87 1.87 1.87 1.87 1.83 1.84 1.79 1.80 1.78 1.78 1.80 1.80 1.83 1.84 1.86 1.87 1.91 1.91 2.04 2.02 2.30 2.30 2.35 2.35 2.42 2.41 2.41 2.41 5.21 5.22 6.67 6.67 6.60 6.61 8.65 8.65 5.78 5.81 4.01 4.03 3.90 3.91 3.40 3.58 3.25 3.26 3.26 3.26 3.47 3.46 3.60 3.60 3.74 3.74 3.93 3.93 4.10 4.10 4.29 4.29 4.54 4.55 4.63 4.63 5.11 5.10 5.41 5.41 5.79 5.78 5.95 5.96 6.60 6.58 7.16 7.15 7.39 7.40 7.44 7.45 9.23 9.16 10.59 10.59 12.00 11.98 13.32 13.30 16.43 16.44 16.45 16.45 16.42 16.42 34.25 34.25 34.24 34.26 34.25 34.25 16.40 16.40 16.43 16.44 16.14 16.19 13.36 13.36 12.03 12.07 10.08 10.09 7.54 7.56 7.35 7.36 7.30 7.30 7.34 7.35 5.90 5.90 5.69 5.69 5.23 5.24 4.73 4.72 4.50 4.51 4.23 4.22 3.99 3.99 3.76 3.76 3.58 3.57 3.41 3.41 3.15 3.15 3.16 3.16 3.18 3.19 8.10 8.11 8.18 8.18 7.56 7.58 6.02 6.02 6.50 6.50 4.88 4.88 2.29 2.28 2.29 2.29 2.23 2.23 2.17 2.17 1.79 1.79 1.75 1.75 1.71 1.70 1.66 1.66 1.63 1.63 1.64 1.64 1.66 1.66 1.65 1.66 1.71 1.72 1.69 1.67 1.65 1.65 1.67 1.68 1.64 1.65 1.62 1.62 1.60 1.60 1.57 1.57 1.54 1.54 1.53 1.53 1.51 1.50 1.49 1.49 1.47 1.47 1.45 1.45 1.44 1.44 1.42 1.41 1.41 1.40 1.39 1.38 1.37 1.36 1.37 1.37 1.35 1.35 1.33 1.34 1.32 1.31 1.30 1.30 1.30 1.29 1.30 1.30 1.29 1.29 1.28 1.28 1.27 1.27 1.26  0 1.298733 9.990156 -1.977898 1.282895 9.953426 -1.977898 0.000000 0.000000 0.000000 0.000000 0.000000 1243.950918 x 32.521101
VERTEX2 19 1.076578 9.340519 -1.855527
ROBOTLASER1 0 -1.570796 3.141720 0.008727 50.000000 0.100000 0 360 1.31 1.31 1.31 1.30 1.30 1.29 1.29 1.29 1.29 1.29 1.29 1.29 1.29 1.28 1.28 1.28 1.28 1.29 1.29 1.28 1.29 1.28 1.29 1.29 1.29 1.28 1.29 1.28 1.28 1.28 1.28 1.28 1.28 1.28 1.29 1.29 1.29 1.29 1.29 1.29 1.29 1.29 1.29 1.29 1.30 1.30 1.30 1.30 1.31 1.31 1.32 1.32 1.32 1.32 1.32 1.32 1.32 1.33 1.33 1.33 1.34 1.34 1.36 1.36 1.37 1.37 1.38 1.38 1.39 1.40 1.40 1.38 1.39 1.39 1.40 1.43 1.42 1.40 1.39 1.34 1.33 1.30 1.29 1.28 1.29 1.29 1.30 1.31 1.31 1.32 1.33 1.33 1.34 1.35 1.36 1.37 1.38 1.39 1.40 1.46 1.57 1.68 1.69 1.69 1.71 1.73 1.73 1.75 1.77 1.78 1.80 1.80 1.82 1.83 1.85 1.84 1.83 1.88 1.98 2.72 2.74 2.77 4.61 4.56 4.42 4.44 4.54 4.57 4.63 8.44 8.40 6.08 5.43 5.04 6.01 8.13 8.11 5.18 3.38 3.32 3.29 2.73 2.68 2.64 2.63 2.63 2.70 2.80 2.84 2.88 2.93 2.98 3.04 3.09 3.15 3.21 3.28 3.34 3.41 3.48 3.55 3.63 3.72 3.82 3.93 3.92 3.98 4.26 4.39 4.51 4.65 4.78 4.93 5.07 5.30 5.31 5.39 5.77 6.01 6.24 6.52 6.69 6.76 6.74 6.75 6.90 8.46 9.76 9.91 10.81 10.95 11.96 12.27 12.72 15.46 15.80 15.79 23.16 27.69 15.81 15.84 33.69 33.71 33.68 33.70 33.68 33.72 15.77 27.71 23.22 18.47 15.70 13.52 12.87 12.72 12.34 11.42 11.27 9.74 9.35 9.29 8.39 6.96 6.75 6.76 6.76 6.71 6.73 6.72 6.53 6.05 5.33 5.33 5.28 5.05 4.92 4.77 4.65 4.51 4.39 4.27 3.96 3.95 3.91 3.82 3.71 3.62 3.55 3.47 3.40 3.33 3.27 3.20 3.15 3.09 3.04 2.98 2.93 2.88 2.84 2.78 2.68 2.64 2.64 2.67 2.68 5.54 7.96 4.89 4.84 6.04 5.13 5.93 4.34 4.32 4.35 8.41 4.35 4.34 4.35 4.51 5.32 8.78 8.81 4.14 6.59 6.58 6.17 4.58 1.92 1.88 1.86 1.87 1.87 1.87 1.86 1.85 1.83 1.81 1.80 1.78 1.78 1.76 1.75 1.73 1.72 1.71 1.70 1.53 1.47 1.42 1.41 1.40 1.40 1.39 1.39 1.38 1.37 1.36 1.36 1.34 1.34 1.32 1.32 1.32 1.32 1.33 1.34 1.38 1.38 1.36 1.44 1.45 1.44 1.41 1.41 1.40 1.41 1.44 1.43 1.43 1.42 1.41 1.41 1.41 1.40 1.39 1.39 1.39 1.39 1.38 1.38 1.37 1.38 1.38 1.36 1.36 1.37 1.36 1.36  0 1.087814 9.378908 -1.855527 1.076578 9.340519 -1.855527 0.000000 0.000000 0.000000 0.000000 0.000000 1245.230759 x 33.802284
VERTEX2 20 0.968178 8.714753 -1.594977
ROBOTLASER1 0 -1.570796 3.141720 0.008727 50.000000 0.100000 0 360 1.06 1.06 1.06 1.06 1.06 1.07 1.06 1.07 1.06 1.07 1.06 1.08 1.07 1.07 1.08 1.08 1.08 1.09 1.09 1.20 1.19 1.26 1.26 1.29 1.30 1.31 1.31 1.32 1.32 1.33 1.33 1.33 1.34 1.34 1.35 1.35 1.35 1.35 1.35 1.36 1.36 1.37 1.38 1.38 1.39 1.39 1.40 1.41 1.41 1.41 1.42 1.41 1.41 1.41 1.42 1.41 1.41 4.41 2.08 2.04 2.04 2.02 2.03 2.05 2.07 2.09 4.42 4.45 2.12 2.08 2.09 2.09 2.09 2.10 2.10 2.10 2.11 2.11 4.28 4.22 4.21 4.14 4.12 3.97 3.87 3.99 4.01 4.05 4.07 4.21 8.20 8.12 8.10 7.99 7.96 5.24 2.16 2.10 2.08 2.05 2.05 2.06 2.10 2.19 2.21 2.24 2.27 2.29 2.32 2.36 2.39 2.44 2.45 2.50 2.54 2.58 2.61 2.67 2.70 2.75 2.79 2.85 2.89 2.95 3.00 3.07 3.11 3.18 3.25 3.30 3.31 3.36 3.56 3.67 3.75 3.87 3.96 4.07 4.17 4.29 4.39 4.56 4.67 4.66 4.73 5.12 5.27 5.49 5.65 5.94 6.05 6.12 6.12 6.10 6.18 7.76 7.82 9.12 9.23 10.15 10.24 11.00 11.45 12.07 12.12 15.15 15.15 15.19 15.18 15.16 15.16 33.00 33.01 32.99 33.01 33.00 33.01 33.03 15.12 15.16 22.60 15.17 15.14 14.58 12.80 12.11 12.08 11.65 10.79 10.64 9.28 8.74 8.66 8.10 7.78 6.40 6.16 6.14 6.16 6.12 6.10 6.12 6.07 5.85 5.59 5.37 4.89 4.70 4.71 4.59 4.49 4.36 4.27 4.14 4.06 3.94 3.87 3.76 3.70 3.60 3.40 3.35 3.34 3.29 3.24 3.17 3.11 3.06 3.01 2.95 2.91 2.86 2.82 2.77 2.74 2.68 2.66 2.62 2.59 2.55 2.53 2.47 2.45 2.42 2.39 2.36 2.33 2.29 2.28 2.24 2.19 2.13 2.13 2.13 2.15 2.18 2.20 3.85 3.87 8.34 3.91 3.87 4.02 4.07 9.69 9.42 6.17 5.71 3.70 8.37 4.36 4.33 4.25 4.03 4.36 4.43 8.80 8.73 8.69 6.99 7.23 8.53 8.50 6.06 3.57 3.61 7.00 6.87 6.53 8.12 8.06 8.04 7.99 7.94 6.57 3.97 1.62 1.53 1.53 1.52 1.53 1.54 1.55 1.53 1.53 1.52 1.51 1.51 1.50 1.49 1.49 1.49 1.49 1.48 1.47 1.47 1.46 1.46 1.46 1.45 1.45 1.44 1.44 1.43 1.42 1.42 1.41 1.40 1.38 1.38 1.28 1.28 1.21 1.22 1.20 1.21 1.20 1.21 1.20 1.21 1.20 1.20 1.19 1.20 1.20 1.20 1.19 1.19 1.18 1.19 1.19 1.20 1.19 1.20 1.27 1.36 1.27 1.33 1.35 1.35  0 0.969145 8.754743 -1.594977 0.968178 8.714753 -1.594977 0.000000 0.000000 0.000000 0.000000 0.000000 1246.510826 x 35.007723
VERTEX2 21 1.038247 8.073971 -1.461545
ROBOTLASER1 0 -1.570796 3.141720 0.008727 50.000000 0.100000 0 360 3.46 6.62 6.30 7.00 7.01 7.02 7.05 7.06 7.08 7.08 7.09 7.03 7.03 7.22 7.29 4.45 4.47 4.38 4.32 4.27 4.27 4.21 4.21 4.21 4.19 4.21 2.51 2.38 2.35 2.35 2.33 2.34 2.34 2.44 4.13 2.21 2.26 2.09 2.08 2.08 2.09 2.13 2.15 4.40 4.42 3.98 3.96 3.89 3.86 1.81 1.77 1.66 1.66 1.65 1.66 1.70 1.72 1.75 1.76 1.78 1.79 1.80 1.81 1.83 1.85 1.87 1.88 1.90 1.90 1.93 1.94 1.95 1.97 2.00 2.01 2.04 2.06 2.08 2.09 2.12 2.14 2.17 2.19 2.22 2.24 2.28 2.29 2.33 2.36 2.39 2.42 2.45 2.49 2.53 2.56 2.60 2.63 2.67 2.71 2.76 2.77 2.76 2.80 2.98 3.03 3.09 3.13 3.21 3.25 3.33 3.37 3.47 3.52 3.60 3.66 3.75 3.83 3.94 4.05 4.08 4.08 4.30 4.41 4.57 4.66 4.83 4.95 5.16 5.29 5.45 5.49 5.51 5.51 5.51 5.64 6.99 7.16 7.46 8.07 8.59 8.67 9.56 9.67 10.60 10.81 11.41 11.47 14.27 14.52 14.52 14.54 14.53 14.53 14.50 32.31 32.36 32.36 32.36 32.36 32.36 32.38 14.47 14.48 14.53 14.53 14.52 14.09 12.20 11.58 11.43 11.16 10.56 10.07 9.91 8.48 8.09 8.02 7.99 7.13 5.73 5.59 5.51 5.51 5.51 5.50 5.46 5.49 5.41 5.29 5.02 4.88 4.71 4.60 4.09 4.08 4.05 3.97 3.85 3.77 3.67 3.62 3.51 3.46 3.38 3.31 3.24 3.19 3.11 3.07 3.01 2.96 2.78 2.74 2.74 2.73 2.67 2.65 2.60 2.56 2.52 2.49 2.44 2.42 2.37 2.35 2.31 2.29 2.25 2.23 2.21 2.19 2.15 2.13 2.10 2.08 2.06 2.04 2.01 2.00 1.97 1.96 1.94 1.92 1.90 1.88 1.86 1.85 1.83 1.82 1.80 1.79 1.78 1.77 1.75 1.73 1.72 1.70 1.65 1.64 1.61 1.62 1.63 1.67 1.68 5.87 6.03 6.02 3.67 3.89 3.93 3.73 3.63 3.93 8.07 8.08 8.03 5.66 5.64 6.46 7.88 6.69 7.72 7.67 7.62 7.58 3.24 3.25 7.48 7.47 5.91 5.40 5.35 5.38 5.38 7.40 3.62 3.63 3.61 7.29 5.71 7.26 7.26 7.10 2.86 2.85 3.31 3.33 5.12 3.33 5.59 2.67 2.67 3.76 3.51 3.23 2.91 3.31 3.38 3.45 3.43 3.69 5.01 4.53 4.58 5.02 4.16 1.44 1.41 1.27 1.26 1.26 1.26 1.27 1.27 1.31 1.30 1.30 1.30 1.30 1.30 1.31 1.31 1.30 1.31 1.31 1.31 1.31 1.31 1.31 1.31 1.31 1.32 1.31 1.32 1.31 1.32 1.32 1.33 1.33 1.33  0 1.033885 8.113734 -1.461545 1.038247 8.073971 -1.461545 0.000000 0.000000 0.000000 0.000000 0.000000 1247.790553 x 36.301306
VERTEX2 22 1.077028 7.435906 -1.586840
ROBOTLASER1 0 -1.570796 3.141720 0.008727 50.000000 0.100000 0 360 6.47 6.45 6.52 6.52 6.49 6.37 7.01 7.02 7.03 7.03 7.06 7.05 7.06 7.06 4.43 4.43 4.24 4.22 4.17 4.14 2.86 1.66 1.49 1.50 1.50 1.50 1.54 1.56 1.56 1.55 1.57 1.57 1.57 1.58 1.59 1.59 1.60 1.60 1.61 1.61 1.62 1.62 1.63 1.64 1.65 1.65 1.66 1.66 1.67 1.67 1.68 1.68 1.70 1.70 1.72 1.72 1.73 1.75 1.75 1.77 1.79 1.79 1.79 1.80 1.83 1.83 1.85 1.86 1.87 1.87 1.90 1.91 1.93 1.93 1.95 1.96 1.98 1.99 2.02 2.02 2.06 2.05 2.08 2.09 2.11 2.11 2.16 2.16 2.20 2.20 2.24 2.25 2.29 2.30 2.31 2.30 2.32 2.33 2.47 2.49 2.54 2.54 2.61 2.61 2.67 2.67 2.74 2.75 2.82 2.82 2.90 2.90 2.98 2.98 3.07 3.07 3.18 3.18 3.28 3.29 3.38 3.40 3.51 3.52 3.53 3.53 3.75 3.76 3.93 3.95 4.10 4.11 4.29 4.31 4.51 4.52 4.75 4.76 4.89 4.89 4.92 4.91 4.93 4.93 6.03 6.06 6.51 6.53 7.07 7.12 7.84 7.90 8.14 8.28 9.03 9.07 10.12 10.13 10.83 10.83 13.46 13.47 13.90 13.89 13.91 13.89 13.88 13.87 31.58 31.57 31.72 31.72 31.72 31.72 31.73 31.71 13.85 13.85 13.89 13.87 13.69 13.52 11.08 10.96 10.79 10.77 9.47 9.44 8.09 7.99 7.38 7.37 6.61 6.56 5.22 5.16 4.85 4.83 4.86 4.85 4.79 4.79 4.83 4.82 4.62 4.60 4.28 4.26 4.03 4.01 3.45 3.43 3.42 3.41 3.30 3.29 3.17 3.16 3.03 3.03 2.91 2.90 2.81 2.80 2.70 2.70 2.62 2.62 2.52 2.52 2.43 2.42 2.36 2.35 2.19 2.19 2.12 2.12 2.12 2.12 2.08 2.07 2.02 2.01 1.97 1.96 1.93 1.93 1.88 1.88 1.84 1.84 1.79 1.79 1.78 1.77 1.73 1.73 1.69 1.69 1.66 1.66 1.64 1.64 1.61 1.61 1.58 1.58 1.56 1.55 1.54 1.54 1.52 1.51 1.49 1.48 1.47 1.46 1.45 1.45 1.43 1.43 1.41 1.41 1.39 1.40 1.38 1.38 1.37 1.37 1.35 1.34 1.33 1.33 1.32 1.32 1.31 1.32 1.30 1.30 1.28 1.29 1.26 1.27 1.26 1.25 1.24 1.24 1.25 1.24 1.21 1.22 1.19 1.19 1.18 1.17 1.23 1.19 5.05 7.06 5.04 5.02 2.85 2.85 6.93 6.93 5.39 5.39 6.79 6.79 3.32 3.31 3.29 3.29 6.72 6.72 4.83 4.83 6.67 6.67 6.68 6.67 2.55 2.56 2.61 2.62 3.57 3.61 5.50 5.50 3.10 3.07 2.46 2.63 2.50 2.49 2.74 2.73 3.97 3.97  0 1.077670 7.475901 -1.586840 1.077028 7.435906 -1.586840 0.000000 0.000000 0.000000 0.000000 0.000000 1249.071149 x 37.621595
VERTEX2 23 1.015982 6.807759 -1.671772
ROBOTLASER1 0 -1.570796 3.141720 0.008727 50.000000 0.100000 0 360 1.48 1.48 1.48 1.48 1.48 1.47 1.48 1.48 1.48 1.48 1.48 1.48 1.49 1.48 1.49 1.49 1.48 1.49 1.49 1.49 1.50 1.50 1.50 1.50 1.50 1.51 1.51 1.52 1.52 1.53 1.53 1.53 1.54 1.54 1.54 1.55 1.55 1.56 1.56 1.57 1.57 1.57 1.57 1.58 1.57 1.58 1.59 1.59 1.59 1.60 1.60 1.61 1.62 1.64 1.64 1.65 1.66 1.66 1.67 1.68 1.68 1.69 1.70 1.71 1.71 1.72 1.73 1.74 1.76 1.77 1.78 1.79 1.79 1.81 1.82 1.83 1.84 1.85 1.87 1.86 1.85 1.85 1.86 1.92 1.97 1.97 1.99 2.01 2.03 2.03 2.06 2.08 2.10 2.10 2.13 2.15 2.17 2.19 2.21 2.24 2.26 2.28 2.30 2.32 2.35 2.38 2.40 2.42 2.46 2.49 2.52 2.54 2.59 2.62 2.64 2.68 2.72 2.75 2.79 2.82 2.86 2.90 2.95 2.96 2.96 2.97 3.06 3.15 3.21 3.26 3.32 3.38 3.43 3.50 3.56 3.63 3.70 3.79 3.88 3.96 4.04 4.14 4.25 4.26 4.32 4.32 4.30 4.29 4.32 4.42 4.57 5.39 5.56 5.74 5.96 5.97 6.42 6.67 6.96 7.31 7.42 8.26 8.32 8.37 8.76 9.35 9.53 9.79 10.27 10.36 12.83 13.25 13.25 13.28 13.27 13.25 13.24 13.21 28.75 30.97 31.04 31.04 31.05 31.04 31.04 31.04 13.21 13.24 13.25 13.24 13.24 12.89 12.50 10.59 10.16 10.13 9.76 9.66 8.75 8.64 7.38 7.13 6.75 6.72 6.72 5.91 5.79 5.68 4.42 4.28 4.21 4.22 4.23 4.23 4.20 4.17 4.19 4.22 4.14 4.04 3.90 3.78 3.68 3.60 3.52 3.42 3.34 3.27 3.19 2.86 2.82 2.83 2.82 2.78 2.72 2.68 2.63 2.59 2.55 2.50 2.46 2.43 2.39 2.36 2.31 2.28 2.24 2.22 2.18 2.16 2.13 2.10 2.07 2.05 2.02 2.00 1.97 1.95 1.92 1.91 1.89 1.86 1.84 1.82 1.81 1.79 1.76 1.75 1.66 1.64 1.62 1.61 1.63 1.63 1.62 1.60 1.59 1.58 1.57 1.55 1.55 1.54 1.52 1.51 1.49 1.49 1.47 1.46 1.45 1.44 1.43 1.42 1.42 1.41 1.40 1.39 1.39 1.37 1.37 1.36 1.35 1.35 1.34 1.33 1.32 1.31 1.32 1.30 1.31 1.30 1.28 1.28 1.27 1.27 1.26 1.26 1.25 1.25 1.24 1.24 1.23 1.23 1.22 1.22 1.22 1.22 1.21 1.21 1.21 1.21 1.20 1.19 1.20 1.19 1.19 1.19 1.18 1.18 1.18 1.18 1.17 1.17 1.17 1.17 1.16 1.16 1.16 1.16 1.15 1.15 1.15 1.15 1.15 1.16 1.16 1.16 1.15 1.15 1.15 1.15  0 1.020013 6.847555 -1.671772 1.015982 6.807759 -1.671772 0.000000 0.000000 0.000000 0.000000 0.000000 1250.350246 x 38.942039
VERTEX2 24 0.950258 6.130896 -1.689281
ROBOTLASER1 0 -1.570796 3.141720 0.008727 50.000000 0.100000 0 360 1.47 1.46 1.47 1.46 1.46 1.46 1.46 1.46 1.46 1.46 1.47 1.47 1.47 1.47 1.47 1.47 1.47 1.48 1.48 1.48 1.49 1.49 1.49 1.48 1.49 1.50 1.49 1.50 1.50 1.50 1.50 1.50 1.51 1.51 1.51 1.52 1.52 1.52 1.53 1.53 1.54 1.54 1.55 1.54 1.52 1.52 1.52 1.53 1.53 1.59 1.59 1.60 1.61 1.61 1.62 1.63 1.64 1.64 1.65 1.66 1.67 1.67 1.68 1.68 1.69 1.70 1.71 1.72 1.74 1.74 1.76 1.77 1.78 1.78 1.79 1.80 1.81 1.83 1.85 1.86 1.87 1.87 1.89 1.90 1.92 1.93 1.93 1.95 1.98 1.99 2.00 2.02 2.04 2.05 2.07 2.09 2.11 2.13 2.16 2.16 2.19 2.21 2.23 2.25 2.26 2.29 2.32 2.35 2.36 2.40 2.42 2.42 2.41 2.41 2.47 2.53 2.58 2.62 2.66 2.69 2.73 2.77 2.81 2.84 2.89 2.92 2.97 3.01 3.06 3.10 3.17 3.22 3.28 3.33 3.40 3.45 3.53 3.58 3.65 3.65 3.71 3.70 3.68 3.67 3.67 3.70 3.82 3.97 4.62 4.74 4.87 5.00 5.18 5.34 5.35 5.72 5.92 6.12 6.37 6.68 6.76 6.96 7.68 7.68 7.98 8.17 8.77 8.87 9.13 9.54 9.66 12.15 12.57 12.61 12.62 12.63 12.62 12.61 12.60 12.57 28.09 30.35 30.42 30.41 30.41 30.41 30.43 30.41 12.56 12.58 12.60 12.60 12.61 12.59 12.05 11.21 9.84 9.51 9.51 9.16 9.04 8.16 8.06 7.73 6.73 6.52 6.16 6.11 6.11 6.08 5.31 5.18 5.14 4.91 4.72 3.75 3.65 3.58 3.59 3.59 3.61 3.61 3.58 3.56 3.56 3.58 3.59 3.52 3.43 3.35 3.25 3.19 3.12 3.07 3.01 2.96 2.89 2.85 2.79 2.77 2.71 2.66 2.62 2.59 2.33 2.28 2.26 2.26 2.26 2.25 2.20 2.18 2.15 2.12 2.10 2.08 2.05 2.04 2.01 1.99 1.97 1.95 1.92 1.90 1.88 1.86 1.84 1.82 1.80 1.78 1.77 1.76 1.74 1.73 1.72 1.69 1.68 1.67 1.65 1.64 1.62 1.61 1.60 1.59 1.57 1.56 1.55 1.55 1.54 1.53 1.52 1.50 1.49 1.48 1.46 1.46 1.46 1.44 1.44 1.43 1.42 1.41 1.39 1.39 1.39 1.39 1.38 1.37 1.36 1.35 1.35 1.33 1.26 1.25 1.26 1.26 1.24 1.25 1.28 1.26 1.25 1.26 1.25 1.25 1.24 1.24 1.24 1.24 1.24 1.23 1.23 1.23 1.22 1.22 1.21 1.21 1.20 1.20 1.20 1.20 1.19 1.19 1.18 1.18 1.18 1.18 1.18 1.18 1.18 1.18 1.17 1.17 1.17 1.17 1.17 1.17 1.17 1.17 1.17 1.17  0 0.954987 6.170615 -1.689281 0.950258 6.130896 -1.689281 0.000000 0.000000 0.000000 0.000000 0.000000 1251.630652 x 40.141883
VERTEX2 25 0.863838 5.484067 -1.707784
ROBOTLASER1 0 -1.570796 3.141720 0.008727 50.000000 0.100000 0 360 1.41 1.46 1.47 1.45 1.44 1.45 1.44 1.45 1.44 1.45 1.44 1.44 1.45 1.44 1.44 1.45 1.45 1.44 1.44 1.45 1.46 1.46 1.45 1.46 1.46 1.46 1.46 1.46 1.47 1.47 1.48 1.49 1.49 1.49 1.49 1.49 1.50 1.50 1.50 1.51 1.52 1.52 1.52 1.52 1.53 1.53 1.53 1.53 1.54 1.54 1.55 1.56 1.56 1.57 1.58 1.57 1.58 1.59 1.60 1.61 1.61 1.62 1.63 1.64 1.64 1.64 1.65 1.67 1.68 1.68 1.69 1.70 1.71 1.72 1.72 1.74 1.75 1.75 1.76 1.77 1.79 1.80 1.82 1.83 1.83 1.84 1.85 1.88 1.89 1.90 1.92 1.92 1.92 1.90 1.92 1.94 1.97 1.99 2.02 2.04 2.06 2.08 2.11 2.12 2.15 2.17 2.19 2.21 2.23 2.25 2.28 2.31 2.33 2.36 2.39 2.41 2.45 2.49 2.52 2.55 2.59 2.62 2.65 2.69 2.73 2.77 2.81 2.84 2.89 2.93 2.99 3.03 3.07 3.05 3.11 3.10 3.10 3.07 3.07 3.06 3.08 3.15 3.23 3.37 3.88 3.98 4.07 4.17 4.25 4.37 4.48 4.61 4.72 4.70 5.05 5.21 5.38 5.56 5.75 5.99 6.10 6.19 7.03 7.04 7.02 7.40 7.56 8.04 8.21 8.42 8.87 8.97 9.08 11.49 11.93 11.94 11.97 11.96 11.97 11.95 11.94 11.91 25.74 29.60 29.76 29.76 29.76 29.76 29.76 29.75 29.78 11.90 11.94 11.94 11.95 11.94 11.94 11.41 10.71 9.52 8.95 8.85 8.85 8.48 8.40 7.54 7.43 7.25 6.75 6.11 5.89 5.78 5.48 5.49 5.48 5.45 5.48 4.62 4.52 4.49 4.32 4.20 4.06 3.95 3.20 3.12 3.05 2.99 2.99 2.99 3.01 3.02 3.02 3.01 2.97 2.96 2.99 3.00 3.01 2.95 2.90 2.84 2.79 2.74 2.70 2.66 2.61 2.58 2.55 2.49 2.46 2.43 2.40 2.36 2.33 2.29 2.27 2.24 2.20 2.18 2.16 2.14 2.11 2.08 2.06 2.05 2.08 2.08 1.88 1.81 1.76 1.75 1.76 1.77 1.77 1.77 1.74 1.73 1.72 1.71 1.69 1.67 1.66 1.65 1.64 1.62 1.62 1.60 1.59 1.58 1.57 1.56 1.54 1.54 1.53 1.52 1.51 1.50 1.50 1.49 1.47 1.46 1.46 1.44 1.44 1.43 1.43 1.42 1.40 1.40 1.40 1.39 1.38 1.37 1.37 1.36 1.36 1.35 1.35 1.35 1.34 1.34 1.33 1.32 1.32 1.31 1.31 1.30 1.30 1.29 1.29 1.29 1.29 1.28 1.28 1.27 1.28 1.28 1.27 1.27 1.27 1.26 1.26 1.25 1.25 1.25 1.24 1.24 1.24 1.24 1.23 1.22 1.23 1.23 1.22 1.23 1.23 1.22 1.22 1.23  0 0.869301 5.523691 -1.707784 0.863838 5.484067 -1.707784 0.000000 0.000000 0.000000 0.000000 0.000000 1252.910588 x 41.441574
VERTEX2 26 0.767107 4.826053 -1.725256
ROBOTLASER1 0 -1.570796 3.141720 0.008727 50.000000 0.100000 0 360 1.41 1.41 1.41 1.41 1.41 1.41 1.41 1.41 1.41 1.41 1.40 1.40 1.40 1.41 1.41 1.41 1.41 1.40 1.41 1.42 1.42 1.41 1.41 1.42 1.42 1.43 1.43 1.44 1.44 1.44 1.44 1.44 1.43 1.44 1.44 1.44 1.44 1.45 1.45 1.45 1.45 1.45 1.45 1.45 1.46 1.48 1.48 1.49 1.48 1.48 1.49 1.49 1.50 1.51 1.52 1.52 1.53 1.54 1.54 1.54 1.54 1.50 1.51 1.51 1.52 1.55 1.57 1.57 1.58 1.58 1.59 1.60 1.61 1.62 1.64 1.65 1.66 1.67 1.68 1.68 1.70 1.71 1.72 1.73 1.74 1.76 1.77 1.78 1.79 1.80 1.82 1.83 1.84 1.86 1.87 1.88 1.90 1.92 1.94 1.95 1.97 1.98 2.00 2.02 2.04 2.06 2.08 2.10 2.13 2.13 2.16 2.18 2.21 2.22 2.25 2.27 2.30 2.33 2.35 2.40 2.43 2.45 2.50 2.47 2.49 2.54 2.54 2.52 2.52 2.50 2.49 2.47 2.49 2.53 2.57 2.61 2.69 2.87 3.18 3.23 3.30 3.36 3.43 3.50 3.57 3.63 3.72 3.81 3.90 4.00 4.10 4.10 4.20 4.45 4.57 4.70 4.85 4.98 5.13 5.33 5.47 5.55 6.40 6.40 6.43 6.41 6.77 6.84 7.22 7.53 7.61 7.85 8.25 8.33 9.95 10.85 11.26 11.32 11.32 11.34 11.34 11.31 11.32 11.28 11.30 26.79 29.10 29.11 29.10 29.10 29.11 29.11 29.11 29.16 11.28 11.28 11.32 11.30 11.33 11.32 11.24 10.61 9.64 8.89 8.34 8.22 8.24 8.12 7.80 7.77 6.90 6.81 6.66 6.28 5.99 5.49 5.29 5.25 4.91 4.84 4.86 4.86 4.84 4.85 4.87 4.12 3.94 3.93 3.86 3.74 3.65 3.58 3.49 3.42 3.34 3.27 3.20 2.71 2.59 2.54 2.49 2.44 2.41 2.41 2.43 2.43 2.45 2.46 2.47 2.46 2.42 2.41 2.43 2.43 2.46 2.46 2.43 2.40 2.36 2.33 2.30 2.27 2.24 2.22 2.19 2.16 2.15 2.12 2.10 2.07 2.05 2.03 2.00 1.99 1.97 1.95 1.95 1.92 1.90 1.89 1.87 1.86 1.84 1.82 1.81 1.80 1.78 1.76 1.75 1.74 1.73 1.72 1.70 1.69 1.68 1.67 1.66 1.65 1.66 1.66 1.70 1.71 1.75 1.74 1.78 1.80 1.84 1.85 1.47 1.43 1.40 1.39 1.38 1.37 1.41 1.41 1.42 1.40 1.40 1.39 1.40 1.39 1.38 1.38 1.37 1.37 1.38 1.36 1.35 1.35 1.35 1.35 1.35 1.35 1.34 1.33 1.33 1.31 1.32 1.32 1.31 1.31 1.31 1.31 1.31 1.31 1.30 1.29 1.30 1.30 1.30 1.29 1.29 1.29 1.28 1.28 1.28 1.28 1.28 1.28  0 0.773260 4.865578 -1.725256 0.767107 4.826053 -1.725256 0.000000 0.000000 0.000000 0.000000 0.000000 1254.190712 x 42.761656
VERTEX2 27 0.654896 4.180494 -1.749550
ROBOTLASER1 0 -1.570796 3.141720 0.008727 50.000000 0.100000 0 360 1.35 1.35 1.35 1.35 1.35 1.35 1.35 1.35 1.35 1.34 1.35 1.35 1.35 1.33 1.31 1.29 1.30 1.30 1.30 1.33 1.33 1.33 1.33 1.33 1.32 1.33 1.33 1.33 1.33 1.33 1.34 1.34 1.35 1.35 1.35 1.36 1.36 1.36 1.36 1.36 1.36 1.36 1.37 1.38 1.38 1.38 1.39 1.39 1.40 1.40 1.41 1.41 1.41 1.41 1.41 1.42 1.42 1.43 1.43 1.44 1.44 1.45 1.46 1.46 1.47 1.49 1.49 1.49 1.51 1.51 1.52 1.53 1.53 1.53 1.54 1.56 1.57 1.58 1.58 1.59 1.60 1.61 1.62 1.63 1.64 1.65 1.66 1.67 1.69 1.69 1.70 1.71 1.73 1.74 1.76 1.76 1.78 1.79 1.80 1.81 1.83 1.86 1.87 1.88 1.90 1.92 1.94 1.94 1.94 1.93 1.95 1.98 1.98 1.96 1.95 1.93 1.92 1.89 1.90 1.89 1.91 1.94 1.96 1.99 2.01 2.04 2.10 2.39 2.49 2.53 2.56 2.60 2.64 2.68 2.72 2.76 2.81 2.84 2.89 2.95 3.00 3.05 3.11 3.16 3.23 3.29 3.37 3.44 3.47 3.47 3.66 3.77 3.88 3.97 4.07 4.18 4.29 4.40 4.53 4.67 4.82 4.82 5.03 5.75 5.78 5.78 5.77 5.91 6.17 6.32 6.70 6.89 6.98 7.19 7.61 7.60 7.77 9.48 10.26 10.66 10.67 10.67 10.68 10.67 10.67 10.66 10.64 10.64 26.14 28.48 28.47 28.47 28.48 28.48 28.48 28.47 28.51 28.54 10.63 10.66 10.67 10.66 10.68 10.68 10.62 10.01 9.44 8.50 8.18 7.70 7.60 7.61 7.58 7.20 7.15 7.14 6.30 6.20 6.09 5.81 5.58 5.37 5.00 4.80 4.67 4.64 4.51 4.28 4.25 4.26 4.27 4.25 4.26 4.26 4.29 4.31 3.68 3.43 3.35 3.33 3.29 3.23 3.15 3.11 3.05 3.00 2.94 2.89 2.85 2.79 2.75 2.71 2.66 2.62 2.58 2.55 2.51 2.26 2.07 2.03 2.00 1.99 1.96 1.94 1.91 1.89 1.89 1.90 1.92 1.93 1.95 1.96 1.97 1.98 1.95 1.93 1.93 1.94 1.95 1.97 2.00 1.99 1.96 1.96 1.94 1.92 1.90 1.89 1.87 1.85 1.84 1.83 1.82 1.80 1.79 1.77 1.76 1.75 1.74 1.73 1.72 1.71 1.69 1.68 1.67 1.66 1.65 1.64 1.64 1.63 1.62 1.61 1.60 1.59 1.59 1.58 1.57 1.56 1.56 1.55 1.54 1.54 1.53 1.53 1.52 1.52 1.51 1.51 1.51 1.50 1.49 1.49 1.48 1.48 1.47 1.46 1.46 1.45 1.45 1.44 1.44 1.44 1.44 1.44 1.43 1.43 1.43 1.43 1.51 1.54 1.64 1.67 1.78 1.80 6.88 6.89 6.87 6.89 6.85 6.85  0 0.662008 4.219857 -1.749550 0.654896 4.180494 -1.749550 0.000000 0.000000 0.000000 0.000000 0.000000 1255.470298 x 44.082344
VERTEX2 28 0.528339 3.538064 -1.768201
ROBOTLASER1 0 -1.570796 3.141720 0.008727 50.000000 0.100000 0 360 1.26 1.26 1.26 1.26 1.26 1.26 1.26 1.26 1.26 1.26 1.25 1.26 1.25 1.25 1.25 1.25 1.25 1.25 1.25 1.25 1.25 1.25 1.25 1.25 1.26 1.26 1.26 1.26 1.26 1.26 1.26 1.26 1.26 1.27 1.27 1.27 1.28 1.28 1.28 1.28 1.29 1.29 1.29 1.28 1.29 1.29 1.29 1.30 1.30 1.30 1.31 1.31 1.32 1.32 1.32 1.33 1.34 1.34 1.34 1.35 1.35 1.36 1.37 1.37 1.38 1.39 1.39 1.40 1.40 1.40 1.41 1.41 1.42 1.43 1.43 1.44 1.45 1.45 1.47 1.47 1.49 1.45 1.46 1.46 1.47 1.50 1.50 1.47 1.46 1.43 1.43 1.40 1.40 1.39 1.39 1.39 1.39 1.40 1.41 1.42 1.43 1.45 1.46 1.47 1.48 1.49 1.51 1.58 1.70 1.83 1.85 1.87 1.88 1.90 1.93 1.94 1.96 1.99 2.01 2.03 2.06 2.07 2.10 2.12 2.16 2.18 2.21 2.23 2.27 2.29 2.33 2.36 2.39 2.43 2.47 2.51 2.56 2.59 2.63 2.67 2.71 2.76 2.82 2.84 2.84 2.86 3.03 3.12 3.18 3.24 3.31 3.38 3.46 3.53 3.63 3.70 3.81 3.89 4.00 4.11 4.20 4.20 4.46 5.12 5.12 5.13 5.14 5.12 5.26 5.51 5.60 5.86 6.17 6.25 6.40 6.54 6.97 6.95 7.19 8.65 9.56 9.76 10.01 10.01 10.03 10.02 10.02 10.02 10.02 9.99 9.99 25.54 27.85 27.84 27.84 27.83 27.84 27.84 27.85 27.86 27.92 9.98 9.98 10.02 10.03 10.03 10.04 10.03 10.00 9.68 9.13 8.50 7.83 7.58 7.18 6.98 6.98 6.99 6.93 6.54 6.54 6.54 6.54 5.67 5.60 5.47 5.25 5.10 4.94 4.81 4.66 4.41 4.24 4.12 4.06 4.04 3.94 3.81 3.65 3.65 3.68 3.69 3.65 3.66 3.68 3.69 3.71 3.72 3.75 3.76 3.80 3.75 2.88 2.79 2.80 2.81 2.76 2.71 2.68 2.64 2.60 2.57 2.53 2.51 2.46 2.43 2.40 2.38 2.34 2.32 2.28 2.26 2.24 2.21 2.18 2.17 2.14 2.12 2.10 2.08 2.06 2.04 2.01 2.01 1.98 1.97 1.95 1.93 1.77 1.69 1.61 1.60 1.59 1.57 1.56 1.56 1.54 1.53 1.52 1.51 1.50 1.48 1.48 1.48 1.50 1.51 1.55 1.55 1.59 1.60 1.60 1.59 1.58 1.57 1.57 1.59 1.62 1.65 1.66 1.65 1.64 1.64 1.63 1.62 1.61 1.61 1.60 1.59 1.59 1.58 1.57 1.57 1.56 1.56 1.55 1.55 1.54 1.54 1.53 1.53 1.52 1.52 1.52 1.52 1.51 1.52 1.51 1.51 1.50 1.50 1.50 1.49 1.49 1.49 1.48 1.48 1.47 1.47 1.47 1.47  0 0.536185 3.577288 -1.768201 0.528339 3.538064 -1.768201 0.000000 0.000000 0.000000 0.000000 0.000000 1256.750772 x 45.262242
VERTEX2 29 0.404176 2.906895 -1.738663
